{
  "cities": [
    {
      "id": "1",
      "name": "Москва",
      "region_id": "1",
      "hint": "",
      "addr": "Москва",
      "lat": 55.754,
      "lon": 37.6204
    },
    {
      "id": "1458",
      "name": "Абатское",
      "region_id": "14",
      "hint": null,
      "addr": "Абатское",
      "lat": 56.2865,
      "lon": 70.449
    },
    {
      "id": "1314",
      "name": "Абдулино",
      "region_id": "31",
      "hint": null,
      "addr": "Абдулино",
      "lat": 53.6778,
      "lon": 53.6473
    },
    {
      "id": "1025",
      "name": "Абинск",
      "region_id": "21",
      "hint": null,
      "addr": "Абинск",
      "lat": 44.8679,
      "lon": 38.1618
    },
    {
      "id": "551",
      "name": "Абрау-Дюрсо",
      "region_id": "21",
      "hint": null,
      "addr": "Абрау-Дюрсо",
      "lat": 44.7172,
      "lon": 37.5924
    },
    {
      "id": "2325",
      "name": "Авиационный",
      "region_id": "2",
      "hint": null,
      "addr": "Авиационный",
      "lat": 54.9454,
      "lon": 73.3262
    },
    {
      "id": "2364",
      "name": "Авиационный мкр,Академика",
      "region_id": "2",
      "hint": null,
      "addr": "Авиационный мкр,Академика",
      "lat": 55.4151,
      "lon": 37.8346
    },
    {
      "id": "1748",
      "name": "Авсюнино",
      "region_id": "2",
      "hint": null,
      "addr": "Авсюнино",
      "lat": 55.5642,
      "lon": 39.1217
    },
    {
      "id": "1007",
      "name": "Агалатово",
      "region_id": "56",
      "hint": null,
      "addr": "Агалатово",
      "lat": 60.219,
      "lon": 30.2838
    },
    {
      "id": "559",
      "name": "Агаповка",
      "region_id": "48",
      "hint": null,
      "addr": "Агаповка",
      "lat": 53.3029,
      "lon": 59.1406
    },
    {
      "id": "526",
      "name": "Агидель",
      "region_id": "33",
      "hint": null,
      "addr": "Агидель",
      "lat": 55.8998,
      "lon": 53.922
    },
    {
      "id": "2092",
      "name": "Агой",
      "region_id": "21",
      "hint": null,
      "addr": "Агой",
      "lat": 44.1472,
      "lon": 39.0379
    },
    {
      "id": "1592",
      "name": "Агроном",
      "region_id": "21",
      "hint": null,
      "addr": "Агроном",
      "lat": 45.1366,
      "lon": 39.1927
    },
    {
      "id": "735",
      "name": "Агрыз",
      "region_id": "22",
      "hint": null,
      "addr": "Агрыз",
      "lat": 56.5263,
      "lon": 52.9953
    },
    {
      "id": "2324",
      "name": "Адамовка",
      "region_id": "31",
      "hint": null,
      "addr": "Адамовка",
      "lat": 51.5197,
      "lon": 59.9358
    },
    {
      "id": "533",
      "name": "Адлер",
      "region_id": "21",
      "hint": null,
      "addr": "Адлер",
      "lat": 43.4436,
      "lon": 39.9104
    },
    {
      "id": "2249",
      "name": "Адыге-Хабль",
      "region_id": "59",
      "hint": null,
      "addr": "Адыге-Хабль",
      "lat": 44.3333,
      "lon": 41.9349
    },
    {
      "id": "827",
      "name": "Адыгейск",
      "region_id": "58",
      "hint": null,
      "addr": "Адыгейск",
      "lat": 44.8784,
      "lon": 39.1902
    },
    {
      "id": "1112",
      "name": "Азнакаево",
      "region_id": "22",
      "hint": null,
      "addr": "Азнакаево",
      "lat": 54.8598,
      "lon": 53.0745
    },
    {
      "id": "365",
      "name": "Азов",
      "region_id": "26",
      "hint": null,
      "addr": "Азов",
      "lat": 47.1121,
      "lon": 39.4233
    },
    {
      "id": "1824",
      "name": "Азово",
      "region_id": "17",
      "hint": null,
      "addr": "Азово",
      "lat": 54.7046,
      "lon": 73.0239
    },
    {
      "id": "2326",
      "name": "Азовская",
      "region_id": "21",
      "hint": null,
      "addr": "Азовская",
      "lat": 55.6524,
      "lon": 37.5984
    },
    {
      "id": "2096",
      "name": "Айкино",
      "region_id": "29",
      "hint": null,
      "addr": "Айкино",
      "lat": 62.2243,
      "lon": 49.9919
    },
    {
      "id": "1887",
      "name": "Айша",
      "region_id": "22",
      "hint": null,
      "addr": "Айша",
      "lat": 55.8712,
      "lon": 48.6324
    },
    {
      "id": "108",
      "name": "Акбулак",
      "region_id": "31",
      "hint": null,
      "addr": "Акбулак",
      "lat": 51.0014,
      "lon": 55.6162
    },
    {
      "id": "795",
      "name": "Аксай",
      "region_id": "26",
      "hint": null,
      "addr": "Аксай",
      "lat": 47.2698,
      "lon": 39.8626
    },
    {
      "id": "1872",
      "name": "Аксаково",
      "region_id": "33",
      "hint": null,
      "addr": "Аксаково",
      "lat": 54.0215,
      "lon": 54.1489
    },
    {
      "id": "753",
      "name": "Аксубаево",
      "region_id": "22",
      "hint": null,
      "addr": "Аксубаево",
      "lat": 54.8477,
      "lon": 50.8028
    },
    {
      "id": "781",
      "name": "Актаныш",
      "region_id": "22",
      "hint": null,
      "addr": "Актаныш",
      "lat": 55.7233,
      "lon": 54.0498
    },
    {
      "id": "427",
      "name": "Актюбинский",
      "region_id": "22",
      "hint": null,
      "addr": "Актюбинский",
      "lat": 54.8138,
      "lon": 52.8014
    },
    {
      "id": "1393",
      "name": "Акъяр",
      "region_id": "33",
      "hint": null,
      "addr": "Акъяр",
      "lat": 51.8637,
      "lon": 58.2172
    },
    {
      "id": "1686",
      "name": "Алабушево",
      "region_id": "2",
      "hint": null,
      "addr": "Алабушево",
      "lat": 56.008,
      "lon": 37.1279
    },
    {
      "id": "2004",
      "name": "Алагир",
      "region_id": "62",
      "hint": null,
      "addr": "Алагир",
      "lat": 43.0417,
      "lon": 44.2199
    },
    {
      "id": "539",
      "name": "Алапаевск",
      "region_id": "39",
      "hint": null,
      "addr": "Алапаевск",
      "lat": 57.8476,
      "lon": 61.6695
    },
    {
      "id": "896",
      "name": "Алатырь",
      "region_id": "28",
      "hint": null,
      "addr": "Алатырь",
      "lat": 54.8398,
      "lon": 46.5722
    },
    {
      "id": "1916",
      "name": "Алейск",
      "region_id": "16",
      "hint": null,
      "addr": "Алейск",
      "lat": 52.4922,
      "lon": 82.7794
    },
    {
      "id": "1635",
      "name": "Александро-Невский",
      "region_id": "8",
      "hint": null,
      "addr": "Александро-Невский",
      "lat": 53.4775,
      "lon": 40.2581
    },
    {
      "id": "739",
      "name": "Александров",
      "region_id": "7",
      "hint": null,
      "addr": "Александров",
      "lat": 56.3978,
      "lon": 38.7276
    },
    {
      "id": "738",
      "name": "Александровай",
      "region_id": "23",
      "hint": null,
      "addr": "Александровай",
      "lat": 58.8417,
      "lon": 32.2057
    },
    {
      "id": "428",
      "name": "Александровка",
      "region_id": "31",
      "hint": null,
      "addr": "Александровка",
      "lat": 42.8564,
      "lon": 74.2251
    },
    {
      "id": "2022",
      "name": "Александровка",
      "region_id": "26",
      "hint": null,
      "addr": "Александровка",
      "lat": 42.8564,
      "lon": 74.2251
    },
    {
      "id": "1100",
      "name": "Александровск",
      "region_id": "40",
      "hint": null,
      "addr": "Александровск",
      "lat": 59.1629,
      "lon": 57.5847
    },
    {
      "id": "1956",
      "name": "Александровское",
      "region_id": "46",
      "hint": null,
      "addr": "Александровское",
      "lat": 44.7125,
      "lon": 42.9965
    },
    {
      "id": "1563",
      "name": "Алексеевка",
      "region_id": "18",
      "hint": null,
      "addr": "Алексеевка",
      "lat": 50.63,
      "lon": 38.6881
    },
    {
      "id": "718",
      "name": "Алексеевка",
      "region_id": "35",
      "hint": null,
      "addr": "Алексеевка",
      "lat": 50.63,
      "lon": 38.6881
    },
    {
      "id": "2352",
      "name": "Алексеевская",
      "region_id": "15",
      "hint": null,
      "addr": "Алексеевская",
      "lat": 50.2902,
      "lon": 42.1846
    },
    {
      "id": "1453",
      "name": "Алексеевское",
      "region_id": "22",
      "hint": null,
      "addr": "Алексеевское",
      "lat": 55.3053,
      "lon": 50.1141
    },
    {
      "id": "860",
      "name": "Алексин",
      "region_id": "3",
      "hint": null,
      "addr": "Алексин",
      "lat": 54.5031,
      "lon": 37.0674
    },
    {
      "id": "1249",
      "name": "Аликово",
      "region_id": "28",
      "hint": null,
      "addr": "Аликово",
      "lat": 55.738,
      "lon": 46.7471
    },
    {
      "id": "676",
      "name": "Алкино-2",
      "region_id": "33",
      "hint": null,
      "addr": "Алкино-2",
      "lat": 54.6545,
      "lon": 55.5925
    },
    {
      "id": "733",
      "name": "Алнаши",
      "region_id": "38",
      "hint": null,
      "addr": "Алнаши",
      "lat": 56.1868,
      "lon": 52.4769
    },
    {
      "id": "73",
      "name": "Альметьевск",
      "region_id": "22",
      "hint": null,
      "addr": "Альметьевск",
      "lat": 54.9014,
      "lon": 52.2971
    },
    {
      "id": "2109",
      "name": "Амзя",
      "region_id": "33",
      "hint": null,
      "addr": "Амзя",
      "lat": 56.2332,
      "lon": 54.3874
    },
    {
      "id": "167",
      "name": "Анапа",
      "region_id": "21",
      "hint": null,
      "addr": "Анапа",
      "lat": 44.895,
      "lon": 37.3163
    },
    {
      "id": "1439",
      "name": "Анапская",
      "region_id": "21",
      "hint": null,
      "addr": "Анапская",
      "lat": 44.8979,
      "lon": 37.3876
    },
    {
      "id": "1830",
      "name": "Анастасиевская",
      "region_id": "21",
      "hint": null,
      "addr": "Анастасиевская",
      "lat": 45.216,
      "lon": 37.8906
    },
    {
      "id": "1388",
      "name": "Анджиевский",
      "region_id": "46",
      "hint": null,
      "addr": "Анджиевский",
      "lat": 44.2348,
      "lon": 43.0949
    },
    {
      "id": "1633",
      "name": "Андреаполь",
      "region_id": "9",
      "hint": null,
      "addr": "Андреаполь",
      "lat": 56.6507,
      "lon": 32.262
    },
    {
      "id": "708",
      "name": "Андреевка",
      "region_id": "2",
      "hint": null,
      "addr": "Андреевка",
      "lat": 55.4427,
      "lon": 86.2083
    },
    {
      "id": "411",
      "name": "Анжеро-Судженск",
      "region_id": "30",
      "hint": null,
      "addr": "Анжеро-Судженск",
      "lat": 56.0832,
      "lon": 86.0182
    },
    {
      "id": "1364",
      "name": "Анна",
      "region_id": "4",
      "hint": null,
      "addr": "Анна",
      "lat": 51.4894,
      "lon": 40.4242
    },
    {
      "id": "975",
      "name": "Апастово",
      "region_id": "22",
      "hint": null,
      "addr": "Апастово",
      "lat": 55.2003,
      "lon": 48.5127
    },
    {
      "id": "525",
      "name": "Апатиты",
      "region_id": "50",
      "hint": null,
      "addr": "Апатиты",
      "lat": 67.5678,
      "lon": 33.4067
    },
    {
      "id": "302",
      "name": "Апрелевка",
      "region_id": "2",
      "hint": null,
      "addr": "Апрелевка",
      "lat": 55.5452,
      "lon": 37.0732
    },
    {
      "id": "151",
      "name": "Апшеронск",
      "region_id": "21",
      "hint": null,
      "addr": "Апшеронск",
      "lat": 44.4584,
      "lon": 39.7301
    },
    {
      "id": "345",
      "name": "Арамиль",
      "region_id": "39",
      "hint": null,
      "addr": "Арамиль",
      "lat": 56.6946,
      "lon": 60.8344
    },
    {
      "id": "458",
      "name": "Аргаяш",
      "region_id": "48",
      "hint": null,
      "addr": "Аргаяш",
      "lat": 55.4891,
      "lon": 60.8755
    },
    {
      "id": "2343",
      "name": "Аргудан",
      "region_id": "63",
      "hint": null,
      "addr": "Аргудан",
      "lat": 43.4169,
      "lon": 43.9109
    },
    {
      "id": "1695",
      "name": "Ардатов",
      "region_id": "6",
      "hint": null,
      "addr": "Ардатов",
      "lat": 54.8466,
      "lon": 46.2412
    },
    {
      "id": "2230",
      "name": "Ардатов",
      "region_id": "60",
      "hint": null,
      "addr": "Ардатов",
      "lat": 54.8466,
      "lon": 46.2412
    },
    {
      "id": "1062",
      "name": "Ардон",
      "region_id": "62",
      "hint": null,
      "addr": "Ардон",
      "lat": 43.1756,
      "lon": 44.2956
    },
    {
      "id": "560",
      "name": "Арзамас",
      "region_id": "6",
      "hint": null,
      "addr": "Арзамас",
      "lat": 55.3867,
      "lon": 43.8157
    },
    {
      "id": "1922",
      "name": "Арзгир",
      "region_id": "46",
      "hint": null,
      "addr": "Арзгир",
      "lat": 45.3697,
      "lon": 44.2212
    },
    {
      "id": "1579",
      "name": "Аркадак",
      "region_id": "23",
      "hint": null,
      "addr": "Аркадак",
      "lat": 51.9388,
      "lon": 43.4998
    },
    {
      "id": "58",
      "name": "Армавир",
      "region_id": "21",
      "hint": null,
      "addr": "Армавир",
      "lat": 40.1554,
      "lon": 44.0387
    },
    {
      "id": "2104",
      "name": "Армизонское",
      "region_id": "14",
      "hint": null,
      "addr": "Армизонское",
      "lat": 55.9455,
      "lon": 67.6846
    },
    {
      "id": "2012",
      "name": "Аромашево",
      "region_id": "14",
      "hint": null,
      "addr": "Аромашево",
      "lat": 56.8623,
      "lon": 68.6427
    },
    {
      "id": "2001",
      "name": "Арсеньево",
      "region_id": "3",
      "hint": null,
      "addr": "Арсеньево",
      "lat": 53.7365,
      "lon": 36.6643
    },
    {
      "id": "887",
      "name": "Арск",
      "region_id": "22",
      "hint": null,
      "addr": "Арск",
      "lat": 56.0913,
      "lon": 49.877
    },
    {
      "id": "312",
      "name": "Артемовский",
      "region_id": "39",
      "hint": null,
      "addr": "Артемовский",
      "lat": 57.3384,
      "lon": 61.8946
    },
    {
      "id": "1330",
      "name": "Арти",
      "region_id": "39",
      "hint": null,
      "addr": "Арти",
      "lat": 56.4216,
      "lon": 58.5127
    },
    {
      "id": "248",
      "name": "Архангельск",
      "region_id": "66",
      "hint": null,
      "addr": "Архангельск",
      "lat": 64.5394,
      "lon": 40.5169
    },
    {
      "id": "2118",
      "name": "Архангельская",
      "region_id": "21",
      "hint": null,
      "addr": "Архангельская",
      "lat": 61.3062,
      "lon": 47.1858
    },
    {
      "id": "1575",
      "name": "Архангельское",
      "region_id": "33",
      "hint": null,
      "addr": "Архангельское",
      "lat": 64.5777,
      "lon": 39.8531
    },
    {
      "id": "173",
      "name": "Архипо-Осиповка",
      "region_id": "21",
      "hint": null,
      "addr": "Архипо-Осиповка",
      "lat": 44.3713,
      "lon": 38.5315
    },
    {
      "id": "958",
      "name": "Архонская",
      "region_id": "62",
      "hint": null,
      "addr": "Архонская",
      "lat": 43.1084,
      "lon": 44.5135
    },
    {
      "id": "1661",
      "name": "Арья",
      "region_id": "6",
      "hint": null,
      "addr": "Арья",
      "lat": 57.4885,
      "lon": 45.9715
    },
    {
      "id": "543",
      "name": "Асбест",
      "region_id": "39",
      "hint": null,
      "addr": "Асбест",
      "lat": 57.0053,
      "lon": 61.4581
    },
    {
      "id": "120",
      "name": "Асекеево",
      "region_id": "31",
      "hint": null,
      "addr": "Асекеево",
      "lat": 53.5748,
      "lon": 52.8055
    },
    {
      "id": "339",
      "name": "Аскарово",
      "region_id": "33",
      "hint": null,
      "addr": "Аскарово",
      "lat": 53.3363,
      "lon": 58.5115
    },
    {
      "id": "2257",
      "name": "Аскино",
      "region_id": "33",
      "hint": null,
      "addr": "Аскино",
      "lat": 56.0857,
      "lon": 56.5785
    },
    {
      "id": "30",
      "name": "Астрахань",
      "region_id": "13",
      "hint": null,
      "addr": "Астрахань",
      "lat": 46.3479,
      "lon": 48.0336
    },
    {
      "id": "1919",
      "name": "Атемар",
      "region_id": "60",
      "hint": null,
      "addr": "Атемар",
      "lat": 54.1826,
      "lon": 45.4002
    },
    {
      "id": "527",
      "name": "Аткарск",
      "region_id": "23",
      "hint": null,
      "addr": "Аткарск",
      "lat": 51.8736,
      "lon": 45.0003
    },
    {
      "id": "486",
      "name": "Атюрьево",
      "region_id": "60",
      "hint": null,
      "addr": "Атюрьево",
      "lat": 54.3206,
      "lon": 43.3412
    },
    {
      "id": "1810",
      "name": "Атяшево",
      "region_id": "60",
      "hint": null,
      "addr": "Атяшево",
      "lat": 54.589,
      "lon": 46.0767
    },
    {
      "id": "1644",
      "name": "Афанасьево",
      "region_id": "55",
      "hint": null,
      "addr": "Афанасьево",
      "lat": 58.8647,
      "lon": 53.2672
    },
    {
      "id": "1043",
      "name": "Афипский",
      "region_id": "21",
      "hint": null,
      "addr": "Афипский",
      "lat": 44.9033,
      "lon": 38.8411
    },
    {
      "id": "118",
      "name": "Ахтубинск",
      "region_id": "13",
      "hint": null,
      "addr": "Ахтубинск",
      "lat": 48.2922,
      "lon": 46.1768
    },
    {
      "id": "1397",
      "name": "Ахтырский",
      "region_id": "21",
      "hint": null,
      "addr": "Ахтырский",
      "lat": 44.8504,
      "lon": 38.2998
    },
    {
      "id": "1092",
      "name": "Ачит",
      "region_id": "39",
      "hint": null,
      "addr": "Ачит",
      "lat": 56.8002,
      "lon": 57.8974
    },
    {
      "id": "1201",
      "name": "Аша",
      "region_id": "48",
      "hint": null,
      "addr": "Аша",
      "lat": 54.9906,
      "lon": 57.2784
    },
    {
      "id": "1914",
      "name": "Бабаево",
      "region_id": "25",
      "hint": null,
      "addr": "Бабаево",
      "lat": 59.3892,
      "lon": 35.9378
    },
    {
      "id": "1729",
      "name": "Бабушкина",
      "region_id": "25",
      "hint": null,
      "addr": "Бабушкина",
      "lat": 59.8757,
      "lon": 30.4448
    },
    {
      "id": "2128",
      "name": "Бабынино",
      "region_id": "53",
      "hint": null,
      "addr": "Бабынино",
      "lat": 54.3916,
      "lon": 35.7388
    },
    {
      "id": "1252",
      "name": "Бавлы",
      "region_id": "22",
      "hint": null,
      "addr": "Бавлы",
      "lat": 54.4063,
      "lon": 53.2459
    },
    {
      "id": "284",
      "name": "Багаевская",
      "region_id": "26",
      "hint": null,
      "addr": "Багаевская",
      "lat": 47.3121,
      "lon": 40.3835
    },
    {
      "id": "393",
      "name": "Бажово",
      "region_id": "48",
      "hint": null,
      "addr": "Бажово",
      "lat": 55.0564,
      "lon": 61.603
    },
    {
      "id": "1442",
      "name": "Базарные Матаки",
      "region_id": "22",
      "hint": null,
      "addr": "Базарные Матаки",
      "lat": 54.9049,
      "lon": 49.9277
    },
    {
      "id": "2111",
      "name": "Базарный Карабулак",
      "region_id": "23",
      "hint": null,
      "addr": "Базарный Карабулак",
      "lat": 52.2735,
      "lon": 46.4168
    },
    {
      "id": "588",
      "name": "Базарный Сызган",
      "region_id": "34",
      "hint": null,
      "addr": "Базарный Сызган",
      "lat": 53.7474,
      "lon": 46.758
    },
    {
      "id": "1944",
      "name": "Базковская",
      "region_id": "26",
      "hint": null,
      "addr": "Базковская",
      "lat": 49.594,
      "lon": 41.7277
    },
    {
      "id": "750",
      "name": "Байкалово",
      "region_id": "39",
      "hint": null,
      "addr": "Байкалово",
      "lat": 57.7758,
      "lon": 67.64
    },
    {
      "id": "961",
      "name": "Баймак",
      "region_id": "33",
      "hint": null,
      "addr": "Баймак",
      "lat": 52.5913,
      "lon": 58.3112
    },
    {
      "id": "1291",
      "name": "Бакал",
      "region_id": "48",
      "hint": null,
      "addr": "Бакал",
      "lat": 54.9381,
      "lon": 58.8092
    },
    {
      "id": "1264",
      "name": "Бакалы",
      "region_id": "33",
      "hint": null,
      "addr": "Бакалы",
      "lat": 55.1796,
      "lon": 53.7956
    },
    {
      "id": "340",
      "name": "Баксан",
      "region_id": "63",
      "hint": null,
      "addr": "Баксан",
      "lat": 43.682,
      "lon": 43.5346
    },
    {
      "id": "1515",
      "name": "Балабаново",
      "region_id": "53",
      "hint": null,
      "addr": "Балабаново",
      "lat": 55.1774,
      "lon": 36.6568
    },
    {
      "id": "937",
      "name": "Балакирево",
      "region_id": "7",
      "hint": null,
      "addr": "Балакирево",
      "lat": 56.5061,
      "lon": 38.841
    },
    {
      "id": "78",
      "name": "Балаково",
      "region_id": "23",
      "hint": null,
      "addr": "Балаково",
      "lat": 52.0223,
      "lon": 47.7828
    },
    {
      "id": "1016",
      "name": "Балахна",
      "region_id": "6",
      "hint": null,
      "addr": "Балахна",
      "lat": 56.5046,
      "lon": 43.602
    },
    {
      "id": "3",
      "name": "Балашиха",
      "region_id": "2",
      "hint": null,
      "addr": "Балашиха",
      "lat": 55.7973,
      "lon": 37.9344
    },
    {
      "id": "613",
      "name": "Балашов",
      "region_id": "23",
      "hint": null,
      "addr": "Балашов",
      "lat": 51.5547,
      "lon": 43.1465
    },
    {
      "id": "1743",
      "name": "Балтай",
      "region_id": "23",
      "hint": null,
      "addr": "Балтай",
      "lat": 52.4644,
      "lon": 46.6275
    },
    {
      "id": "1776",
      "name": "Балтаси",
      "region_id": "22",
      "hint": null,
      "addr": "Балтаси",
      "lat": 56.3456,
      "lon": 50.2111
    },
    {
      "id": "773",
      "name": "Барабинск",
      "region_id": "12",
      "hint": null,
      "addr": "Барабинск",
      "lat": 55.3504,
      "lon": 78.3419
    },
    {
      "id": "697",
      "name": "Баранчинский",
      "region_id": "39",
      "hint": null,
      "addr": "Баранчинский",
      "lat": 58.1623,
      "lon": 59.6966
    },
    {
      "id": "2311",
      "name": "Баратаевка",
      "region_id": "34",
      "hint": null,
      "addr": "Баратаевка",
      "lat": 55.6181,
      "lon": 84.4526
    },
    {
      "id": "1977",
      "name": "Барда",
      "region_id": "40",
      "hint": null,
      "addr": "Барда",
      "lat": 40.3871,
      "lon": 47.1298
    },
    {
      "id": "33",
      "name": "Барнаул",
      "region_id": "16",
      "hint": null,
      "addr": "Барнаул",
      "lat": 53.3481,
      "lon": 83.7799
    },
    {
      "id": "973",
      "name": "Барыбино",
      "region_id": "2",
      "hint": null,
      "addr": "Барыбино",
      "lat": 55.2633,
      "lon": 37.8931
    },
    {
      "id": "653",
      "name": "Барыш",
      "region_id": "34",
      "hint": null,
      "addr": "Барыш",
      "lat": 53.6535,
      "lon": 47.118
    },
    {
      "id": "1796",
      "name": "Барышево",
      "region_id": "12",
      "hint": null,
      "addr": "Барышево",
      "lat": 54.9559,
      "lon": 83.1775
    },
    {
      "id": "2038",
      "name": "Барятино",
      "region_id": "53",
      "hint": null,
      "addr": "Барятино",
      "lat": 54.3121,
      "lon": 34.5267
    },
    {
      "id": "662",
      "name": "Батайск",
      "region_id": "26",
      "hint": null,
      "addr": "Батайск",
      "lat": 47.1382,
      "lon": 39.7507
    },
    {
      "id": "2205",
      "name": "Батецкий",
      "region_id": "19",
      "hint": null,
      "addr": "Батецкий",
      "lat": 58.5992,
      "lon": 30.4855
    },
    {
      "id": "987",
      "name": "Батырево",
      "region_id": "28",
      "hint": null,
      "addr": "Батырево",
      "lat": 55.0652,
      "lon": 47.6095
    },
    {
      "id": "1734",
      "name": "Бачатский",
      "region_id": "30",
      "hint": null,
      "addr": "Бачатский",
      "lat": 54.2846,
      "lon": 86.1036
    },
    {
      "id": "425",
      "name": "Башмаково",
      "region_id": "24",
      "hint": null,
      "addr": "Башмаково",
      "lat": 53.2122,
      "lon": 43.0353
    },
    {
      "id": "2187",
      "name": "Бегуницы",
      "region_id": "56",
      "hint": null,
      "addr": "Бегуницы",
      "lat": 59.5851,
      "lon": 29.3049
    },
    {
      "id": "564",
      "name": "Бежаницы",
      "region_id": "27",
      "hint": null,
      "addr": "Бежаницы",
      "lat": 56.972,
      "lon": 29.896
    },
    {
      "id": "537",
      "name": "Бежецк",
      "region_id": "9",
      "hint": null,
      "addr": "Бежецк",
      "lat": 57.7857,
      "lon": 36.6939
    },
    {
      "id": "1369",
      "name": "Безенчук",
      "region_id": "18",
      "hint": null,
      "addr": "Безенчук",
      "lat": 52.9818,
      "lon": 49.4272
    },
    {
      "id": "2142",
      "name": "Беково",
      "region_id": "24",
      "hint": null,
      "addr": "Беково",
      "lat": 54.3666,
      "lon": 86.192
    },
    {
      "id": "2351",
      "name": "Белая",
      "region_id": "5",
      "hint": null,
      "addr": "Белая",
      "lat": 51.0522,
      "lon": 35.7177
    },
    {
      "id": "2338",
      "name": "Белая Березка",
      "region_id": "37",
      "hint": null,
      "addr": "Белая Березка",
      "lat": 52.3837,
      "lon": 33.4833
    },
    {
      "id": "134",
      "name": "Белая Калитва",
      "region_id": "26",
      "hint": null,
      "addr": "Белая Калитва",
      "lat": 48.177,
      "lon": 40.8033
    },
    {
      "id": "2306",
      "name": "Белая Речка",
      "region_id": "7",
      "hint": null,
      "addr": "Белая Речка",
      "lat": 64.7042,
      "lon": 42.9734
    },
    {
      "id": "1356",
      "name": "Белая Холуница",
      "region_id": "55",
      "hint": null,
      "addr": "Белая Холуница",
      "lat": 58.8436,
      "lon": 50.8527
    },
    {
      "id": "875",
      "name": "Белаялина",
      "region_id": "21",
      "hint": null,
      "addr": "Белаялина",
      "lat": 46.0737,
      "lon": 40.8713
    },
    {
      "id": "57",
      "name": "Белгород",
      "region_id": "35",
      "hint": null,
      "addr": "Белгород",
      "lat": 50.5975,
      "lon": 36.5888
    },
    {
      "id": "597",
      "name": "Белебей",
      "region_id": "33",
      "hint": null,
      "addr": "Белебей",
      "lat": 54.1035,
      "lon": 54.1112
    },
    {
      "id": "1540",
      "name": "Белев",
      "region_id": "3",
      "hint": null,
      "addr": "Белев",
      "lat": 53.8099,
      "lon": 36.1301
    },
    {
      "id": "1836",
      "name": "Белинский",
      "region_id": "24",
      "hint": null,
      "addr": "Белинский",
      "lat": 52.9656,
      "lon": 43.4087
    },
    {
      "id": "1041",
      "name": "Белово",
      "region_id": "30",
      "hint": null,
      "addr": "Белово",
      "lat": 54.4221,
      "lon": 86.3037
    },
    {
      "id": "1704",
      "name": "Белозерный",
      "region_id": "21",
      "hint": null,
      "addr": "Белозерный",
      "lat": 46.839,
      "lon": 41.3378
    },
    {
      "id": "684",
      "name": "Белозерск",
      "region_id": "25",
      "hint": null,
      "addr": "Белозерск",
      "lat": 60.0308,
      "lon": 37.789
    },
    {
      "id": "1186",
      "name": "Беломорск",
      "region_id": "20",
      "hint": null,
      "addr": "Беломорск",
      "lat": 64.5378,
      "lon": 34.7799
    },
    {
      "id": "1725",
      "name": "Белоозерский",
      "region_id": "2",
      "hint": null,
      "addr": "Белоозерский",
      "lat": 55.4596,
      "lon": 38.4389
    },
    {
      "id": "944",
      "name": "Белорецк",
      "region_id": "33",
      "hint": null,
      "addr": "Белорецк",
      "lat": 53.9676,
      "lon": 58.41
    },
    {
      "id": "279",
      "name": "Белореченск",
      "region_id": "21",
      "hint": null,
      "addr": "Белореченск",
      "lat": 44.7611,
      "lon": 39.8711
    },
    {
      "id": "283",
      "name": "Белоусово",
      "region_id": "53",
      "hint": null,
      "addr": "Белоусово",
      "lat": 55.0895,
      "lon": 36.6578
    },
    {
      "id": "999",
      "name": "Белые Берега",
      "region_id": "37",
      "hint": null,
      "addr": "Белые Берега",
      "lat": 53.2073,
      "lon": 34.6629
    },
    {
      "id": "278",
      "name": "Белые Столбы",
      "region_id": "2",
      "hint": null,
      "addr": "Белые Столбы",
      "lat": 55.3341,
      "lon": 37.8481
    },
    {
      "id": "1962",
      "name": "Белый Ключ",
      "region_id": "34",
      "hint": null,
      "addr": "Белый Ключ",
      "lat": 54.437,
      "lon": 46.8264
    },
    {
      "id": "1273",
      "name": "Белый Яр",
      "region_id": "32",
      "hint": null,
      "addr": "Белый Яр",
      "lat": 53.5968,
      "lon": 91.3831
    },
    {
      "id": "2321",
      "name": "Беляевка",
      "region_id": "31",
      "hint": null,
      "addr": "Беляевка",
      "lat": 46.4726,
      "lon": 30.2254
    },
    {
      "id": "523",
      "name": "Бердск",
      "region_id": "12",
      "hint": null,
      "addr": "Бердск",
      "lat": 54.7583,
      "lon": 83.1071
    },
    {
      "id": "606",
      "name": "Бердюжье",
      "region_id": "14",
      "hint": null,
      "addr": "Бердюжье",
      "lat": 55.8017,
      "lon": 68.3232
    },
    {
      "id": "2182",
      "name": "Бердяуш",
      "region_id": "48",
      "hint": null,
      "addr": "Бердяуш",
      "lat": 55.1595,
      "lon": 59.1448
    },
    {
      "id": "265",
      "name": "Береговой",
      "region_id": "17",
      "hint": null,
      "addr": "Береговой",
      "lat": 53.6462,
      "lon": 23.9841
    },
    {
      "id": "1344",
      "name": "Береза",
      "region_id": "18",
      "hint": null,
      "addr": "Береза",
      "lat": 52.5335,
      "lon": 24.983
    },
    {
      "id": "594",
      "name": "Березанская",
      "region_id": "21",
      "hint": null,
      "addr": "Березанская",
      "lat": 51.0609,
      "lon": 31.9
    },
    {
      "id": "1888",
      "name": "Березник",
      "region_id": "66",
      "hint": null,
      "addr": "Березник",
      "lat": 62.8557,
      "lon": 42.7023
    },
    {
      "id": "157",
      "name": "Березники",
      "region_id": "40",
      "hint": null,
      "addr": "Березники",
      "lat": 59.4079,
      "lon": 56.804
    },
    {
      "id": "511",
      "name": "Березовка",
      "region_id": "40",
      "hint": null,
      "addr": "Березовка",
      "lat": 47.2005,
      "lon": 30.9171
    },
    {
      "id": "2204",
      "name": "Березовский",
      "region_id": "30",
      "hint": null,
      "addr": "Березовский",
      "lat": 55.6693,
      "lon": 86.2745
    },
    {
      "id": "187",
      "name": "Березовский",
      "region_id": "39",
      "hint": null,
      "addr": "Березовский",
      "lat": 55.6693,
      "lon": 86.2745
    },
    {
      "id": "1094",
      "name": "Березовый",
      "region_id": "21",
      "hint": null,
      "addr": "Березовый",
      "lat": 51.669,
      "lon": 135.67
    },
    {
      "id": "1737",
      "name": "Беслан",
      "region_id": "62",
      "hint": null,
      "addr": "Беслан",
      "lat": 43.1938,
      "lon": 44.5338
    },
    {
      "id": "1709",
      "name": "Бессергеневская",
      "region_id": "26",
      "hint": null,
      "addr": "Бессергеневская",
      "lat": 47.3993,
      "lon": 40.3378
    },
    {
      "id": "270",
      "name": "Бесскорбная",
      "region_id": "21",
      "hint": null,
      "addr": "Бесскорбная",
      "lat": 44.6441,
      "lon": 41.3085
    },
    {
      "id": "1705",
      "name": "Бессоновка",
      "region_id": "24",
      "hint": null,
      "addr": "Бессоновка",
      "lat": 53.3103,
      "lon": 45.0393
    },
    {
      "id": "1545",
      "name": "Бетлица",
      "region_id": "53",
      "hint": null,
      "addr": "Бетлица",
      "lat": 54.0145,
      "lon": 33.9458
    },
    {
      "id": "2065",
      "name": "Бижбуляк",
      "region_id": "33",
      "hint": null,
      "addr": "Бижбуляк",
      "lat": 53.6926,
      "lon": 54.2696
    },
    {
      "id": "48",
      "name": "Бийск",
      "region_id": "16",
      "hint": null,
      "addr": "Бийск",
      "lat": 52.5393,
      "lon": 85.2138
    },
    {
      "id": "1961",
      "name": "Билимбай",
      "region_id": "39",
      "hint": null,
      "addr": "Билимбай",
      "lat": 56.9637,
      "lon": 59.8174
    },
    {
      "id": "1097",
      "name": "Бирск",
      "region_id": "33",
      "hint": null,
      "addr": "Бирск",
      "lat": 55.4125,
      "lon": 55.5405
    },
    {
      "id": "349",
      "name": "Бирюч",
      "region_id": "35",
      "hint": null,
      "addr": "Бирюч",
      "lat": 50.6484,
      "lon": 38.4006
    },
    {
      "id": "1856",
      "name": "Бисерть",
      "region_id": "39",
      "hint": null,
      "addr": "Бисерть",
      "lat": 56.9111,
      "lon": 59.2467
    },
    {
      "id": "686",
      "name": "Благовещенск",
      "region_id": "33",
      "hint": null,
      "addr": "Благовещенск",
      "lat": 50.2907,
      "lon": 127.527
    },
    {
      "id": "1698",
      "name": "Благодарный",
      "region_id": "46",
      "hint": null,
      "addr": "Благодарный",
      "lat": 45.099,
      "lon": 43.4306
    },
    {
      "id": "777",
      "name": "Бобров",
      "region_id": "4",
      "hint": null,
      "addr": "Бобров",
      "lat": 51.0902,
      "lon": 40.0319
    },
    {
      "id": "2349",
      "name": "Богандинский",
      "region_id": "14",
      "hint": null,
      "addr": "Богандинский",
      "lat": 56.8929,
      "lon": 65.8914
    },
    {
      "id": "1359",
      "name": "Богатое",
      "region_id": "18",
      "hint": null,
      "addr": "Богатое",
      "lat": 53.0618,
      "lon": 51.3303
    },
    {
      "id": "954",
      "name": "Богатые Сабы",
      "region_id": "22",
      "hint": null,
      "addr": "Богатые Сабы",
      "lat": 56.0083,
      "lon": 50.4435
    },
    {
      "id": "917",
      "name": "Богданиха",
      "region_id": "45",
      "hint": null,
      "addr": "Богданиха",
      "lat": 56.9165,
      "lon": 41.1198
    },
    {
      "id": "1342",
      "name": "Богданович",
      "region_id": "39",
      "hint": null,
      "addr": "Богданович",
      "lat": 56.7765,
      "lon": 62.0463
    },
    {
      "id": "929",
      "name": "Боголюбово",
      "region_id": "7",
      "hint": null,
      "addr": "Боголюбово",
      "lat": 56.1992,
      "lon": 40.5339
    },
    {
      "id": "286",
      "name": "Богородицк",
      "region_id": "3",
      "hint": null,
      "addr": "Богородицк",
      "lat": 53.7701,
      "lon": 38.1226
    },
    {
      "id": "609",
      "name": "Богородск",
      "region_id": "6",
      "hint": null,
      "addr": "Богородск",
      "lat": 56.1021,
      "lon": 43.5136
    },
    {
      "id": "461",
      "name": "Богородское",
      "region_id": "2",
      "hint": null,
      "addr": "Богородское",
      "lat": 55.8042,
      "lon": 37.6842
    },
    {
      "id": "2124",
      "name": "Богословка",
      "region_id": "24",
      "hint": null,
      "addr": "Богословка",
      "lat": 52.9765,
      "lon": 91.2746
    },
    {
      "id": "1167",
      "name": "Богучар",
      "region_id": "4",
      "hint": null,
      "addr": "Богучар",
      "lat": 49.9353,
      "lon": 40.5592
    },
    {
      "id": "1870",
      "name": "Боковская",
      "region_id": "26",
      "hint": null,
      "addr": "Боковская",
      "lat": 49.225,
      "lon": 41.8332
    },
    {
      "id": "699",
      "name": "Бокситогорск",
      "region_id": "56",
      "hint": null,
      "addr": "Бокситогорск",
      "lat": 59.4736,
      "lon": 33.8477
    },
    {
      "id": "267",
      "name": "Болгар",
      "region_id": "22",
      "hint": null,
      "addr": "Болгар",
      "lat": 54.9749,
      "lon": 49.0304
    },
    {
      "id": "370",
      "name": "Бологое",
      "region_id": "9",
      "hint": null,
      "addr": "Бологое",
      "lat": 57.8856,
      "lon": 34.0538
    },
    {
      "id": "1984",
      "name": "Болохово",
      "region_id": "3",
      "hint": null,
      "addr": "Болохово",
      "lat": 54.0821,
      "lon": 37.8268
    },
    {
      "id": "1497",
      "name": "Болхов",
      "region_id": "49",
      "hint": null,
      "addr": "Болхов",
      "lat": 53.4439,
      "lon": 36.0078
    },
    {
      "id": "2143",
      "name": "Большая Атня",
      "region_id": "22",
      "hint": null,
      "addr": "Большая Атня",
      "lat": 56.251,
      "lon": 49.451
    },
    {
      "id": "2340",
      "name": "Большая Вруда",
      "region_id": "56",
      "hint": null,
      "addr": "Большая Вруда",
      "lat": 59.4062,
      "lon": 29.2414
    },
    {
      "id": "430",
      "name": "Большая Мартыновка",
      "region_id": "26",
      "hint": null,
      "addr": "Большая Мартыновка",
      "lat": 47.2729,
      "lon": 41.664
    },
    {
      "id": "627",
      "name": "Большая Орловка",
      "region_id": "26",
      "hint": null,
      "addr": "Большая Орловка",
      "lat": 47.329,
      "lon": 41.2652
    },
    {
      "id": "1637",
      "name": "Большая Соснова",
      "region_id": "40",
      "hint": null,
      "addr": "Большая Соснова",
      "lat": 57.668,
      "lon": 54.6038
    },
    {
      "id": "174",
      "name": "Большая Черниговка",
      "region_id": "18",
      "hint": null,
      "addr": "Большая Черниговка",
      "lat": 52.0937,
      "lon": 50.8683
    },
    {
      "id": "2353",
      "name": "Большаялушица",
      "region_id": "18",
      "hint": null,
      "addr": "Большаялушица",
      "lat": 52.3928,
      "lon": 50.4719
    },
    {
      "id": "2007",
      "name": "Большегривское",
      "region_id": "17",
      "hint": null,
      "addr": "Большегривское",
      "lat": 53.9153,
      "lon": 74.9103
    },
    {
      "id": "1157",
      "name": "Большеречье",
      "region_id": "17",
      "hint": null,
      "addr": "Большеречье",
      "lat": 56.0984,
      "lon": 74.6226
    },
    {
      "id": "317",
      "name": "Большеустьикинское",
      "region_id": "33",
      "hint": null,
      "addr": "Большеустьикинское",
      "lat": 55.9496,
      "lon": 58.2673
    },
    {
      "id": "226",
      "name": "Большие Березники",
      "region_id": "60",
      "hint": null,
      "addr": "Большие Березники",
      "lat": 54.1752,
      "lon": 45.968
    },
    {
      "id": "1890",
      "name": "Большие Вяземы",
      "region_id": "2",
      "hint": null,
      "addr": "Большие Вяземы",
      "lat": 55.6262,
      "lon": 36.9973
    },
    {
      "id": "1204",
      "name": "Большие Дворы",
      "region_id": "2",
      "hint": null,
      "addr": "Большие Дворы",
      "lat": 55.8154,
      "lon": 38.6462
    },
    {
      "id": "1873",
      "name": "Большие Кайбицы",
      "region_id": "22",
      "hint": null,
      "addr": "Большие Кайбицы",
      "lat": 55.3998,
      "lon": 48.1898
    },
    {
      "id": "2085",
      "name": "Большие Колпаны",
      "region_id": "56",
      "hint": null,
      "addr": "Большие Колпаны",
      "lat": 59.5239,
      "lon": 30.0658
    },
    {
      "id": "2275",
      "name": "Большие Салы",
      "region_id": "26",
      "hint": null,
      "addr": "Большие Салы",
      "lat": 47.3873,
      "lon": 39.6859
    },
    {
      "id": "403",
      "name": "Большие Чапурники",
      "region_id": "15",
      "hint": null,
      "addr": "Большие Чапурники",
      "lat": 48.4236,
      "lon": 44.5821
    },
    {
      "id": "655",
      "name": "Большое Болдино",
      "region_id": "6",
      "hint": null,
      "addr": "Большое Болдино",
      "lat": 55.0026,
      "lon": 45.3114
    },
    {
      "id": "1912",
      "name": "Большое Игнатово",
      "region_id": "60",
      "hint": null,
      "addr": "Большое Игнатово",
      "lat": 55.0162,
      "lon": 45.5725
    },
    {
      "id": "321",
      "name": "Большое Козино",
      "region_id": "6",
      "hint": null,
      "addr": "Большое Козино",
      "lat": 56.4038,
      "lon": 43.7099
    },
    {
      "id": "933",
      "name": "Большое Мурашкино",
      "region_id": "6",
      "hint": null,
      "addr": "Большое Мурашкино",
      "lat": 55.781,
      "lon": 44.7721
    },
    {
      "id": "1613",
      "name": "Большое Нагаткино",
      "region_id": "34",
      "hint": null,
      "addr": "Большое Нагаткино",
      "lat": 54.5159,
      "lon": 47.9741
    },
    {
      "id": "1591",
      "name": "Большое Село",
      "region_id": "10",
      "hint": null,
      "addr": "Большое Село",
      "lat": 55.0206,
      "lon": 22.1429
    },
    {
      "id": "2191",
      "name": "Большое Солдатское",
      "region_id": "5",
      "hint": null,
      "addr": "Большое Солдатское",
      "lat": 51.3335,
      "lon": 35.519
    },
    {
      "id": "1911",
      "name": "Большое Сорокино",
      "region_id": "14",
      "hint": null,
      "addr": "Большое Сорокино",
      "lat": 56.6331,
      "lon": 69.8162
    },
    {
      "id": "1659",
      "name": "Большой Исток",
      "region_id": "39",
      "hint": null,
      "addr": "Большой Исток",
      "lat": 56.7213,
      "lon": 60.7697
    },
    {
      "id": "396",
      "name": "Большой Лог",
      "region_id": "26",
      "hint": null,
      "addr": "Большой Лог",
      "lat": 47.2915,
      "lon": 39.9235
    },
    {
      "id": "952",
      "name": "Бондари",
      "region_id": "64",
      "hint": null,
      "addr": "Бондари",
      "lat": 53.6702,
      "lon": 24.2949
    },
    {
      "id": "742",
      "name": "Бор",
      "region_id": "6",
      "hint": null,
      "addr": "Бор",
      "lat": 56.3565,
      "lon": 44.0646
    },
    {
      "id": "1538",
      "name": "Боринское",
      "region_id": "44",
      "hint": null,
      "addr": "Боринское",
      "lat": 52.4575,
      "lon": 39.3724
    },
    {
      "id": "2244",
      "name": "Борисовичи",
      "region_id": "27",
      "hint": null,
      "addr": "Борисовичи",
      "lat": 53.6017,
      "lon": 31.6757
    },
    {
      "id": "782",
      "name": "Борисовка",
      "region_id": "35",
      "hint": null,
      "addr": "Борисовка",
      "lat": 59.8707,
      "lon": 42.1175
    },
    {
      "id": "2017",
      "name": "Борисовка",
      "region_id": "21",
      "hint": null,
      "addr": "Борисовка",
      "lat": 59.8707,
      "lon": 42.1175
    },
    {
      "id": "282",
      "name": "Борисоглебск",
      "region_id": "4",
      "hint": null,
      "addr": "Борисоглебск",
      "lat": 51.3677,
      "lon": 42.075
    },
    {
      "id": "355",
      "name": "Боровичи",
      "region_id": "19",
      "hint": null,
      "addr": "Боровичи",
      "lat": 58.3882,
      "lon": 33.914
    },
    {
      "id": "648",
      "name": "Боровск",
      "region_id": "53",
      "hint": null,
      "addr": "Боровск",
      "lat": 55.2076,
      "lon": 36.4836
    },
    {
      "id": "1107",
      "name": "Боровский",
      "region_id": "14",
      "hint": null,
      "addr": "Боровский",
      "lat": 55.183,
      "lon": 36.4283
    },
    {
      "id": "1586",
      "name": "Борское",
      "region_id": "18",
      "hint": null,
      "addr": "Борское",
      "lat": 53.0262,
      "lon": 51.6983
    },
    {
      "id": "1084",
      "name": "Бреды",
      "region_id": "48",
      "hint": null,
      "addr": "Бреды",
      "lat": 52.4223,
      "lon": 60.3368
    },
    {
      "id": "2074",
      "name": "Брейтово",
      "region_id": "10",
      "hint": null,
      "addr": "Брейтово",
      "lat": 58.3004,
      "lon": 37.8628
    },
    {
      "id": "1839",
      "name": "Бриньковская",
      "region_id": "21",
      "hint": null,
      "addr": "Бриньковская",
      "lat": 46.0326,
      "lon": 38.586
    },
    {
      "id": "380",
      "name": "Бронница",
      "region_id": "19",
      "hint": null,
      "addr": "Бронница",
      "lat": 58.4542,
      "lon": 31.6609
    },
    {
      "id": "500",
      "name": "Брюховецкая",
      "region_id": "21",
      "hint": null,
      "addr": "Брюховецкая",
      "lat": 45.802,
      "lon": 38.9973
    },
    {
      "id": "60",
      "name": "Брянск",
      "region_id": "37",
      "hint": null,
      "addr": "Брянск",
      "lat": 53.2433,
      "lon": 34.3637
    },
    {
      "id": "203",
      "name": "Бугульма",
      "region_id": "22",
      "hint": null,
      "addr": "Бугульма",
      "lat": 54.5364,
      "lon": 52.7895
    },
    {
      "id": "853",
      "name": "Бугуруслан",
      "region_id": "31",
      "hint": null,
      "addr": "Бугуруслан",
      "lat": 53.6523,
      "lon": 52.4326
    },
    {
      "id": "817",
      "name": "Буденновск",
      "region_id": "46",
      "hint": null,
      "addr": "Буденновск",
      "lat": 44.7815,
      "lon": 44.165
    },
    {
      "id": "652",
      "name": "Будогощь",
      "region_id": "56",
      "hint": null,
      "addr": "Будогощь",
      "lat": 59.2856,
      "lon": 32.4461
    },
    {
      "id": "1341",
      "name": "Буздяк",
      "region_id": "33",
      "hint": null,
      "addr": "Буздяк",
      "lat": 54.5705,
      "lon": 54.534
    },
    {
      "id": "636",
      "name": "Бузулук",
      "region_id": "31",
      "hint": null,
      "addr": "Бузулук",
      "lat": 52.7881,
      "lon": 52.2624
    },
    {
      "id": "1495",
      "name": "Буинск",
      "region_id": "22",
      "hint": null,
      "addr": "Буинск",
      "lat": 54.9642,
      "lon": 48.2901
    },
    {
      "id": "1383",
      "name": "Буй",
      "region_id": "61",
      "hint": null,
      "addr": "Буй",
      "lat": 58.4817,
      "lon": 41.5331
    },
    {
      "id": "377",
      "name": "Буланаш",
      "region_id": "39",
      "hint": null,
      "addr": "Буланаш",
      "lat": 57.2767,
      "lon": 61.9907
    },
    {
      "id": "1240",
      "name": "Булгаково",
      "region_id": "33",
      "hint": null,
      "addr": "Булгаково",
      "lat": 54.4954,
      "lon": 55.8828
    },
    {
      "id": "1389",
      "name": "Бураево",
      "region_id": "33",
      "hint": null,
      "addr": "Бураево",
      "lat": 55.8437,
      "lon": 55.4076
    },
    {
      "id": "1160",
      "name": "Буранный",
      "region_id": "48",
      "hint": null,
      "addr": "Буранный",
      "lat": 53.3947,
      "lon": 59.3327
    },
    {
      "id": "2050",
      "name": "Буревестник",
      "region_id": "6",
      "hint": null,
      "addr": "Буревестник",
      "lat": 56.1477,
      "lon": 43.7865
    },
    {
      "id": "938",
      "name": "Бурибай",
      "region_id": "33",
      "hint": null,
      "addr": "Бурибай",
      "lat": 51.9613,
      "lon": 58.1637
    },
    {
      "id": "475",
      "name": "Бутурлино",
      "region_id": "6",
      "hint": null,
      "addr": "Бутурлино",
      "lat": 55.5678,
      "lon": 44.9048
    },
    {
      "id": "407",
      "name": "Бутурлиновка",
      "region_id": "4",
      "hint": null,
      "addr": "Бутурлиновка",
      "lat": 50.8354,
      "lon": 40.5848
    },
    {
      "id": "170",
      "name": "Быково",
      "region_id": "2",
      "hint": null,
      "addr": "Быково",
      "lat": 49.7655,
      "lon": 45.3884
    },
    {
      "id": "1211",
      "name": "Быково",
      "region_id": "15",
      "hint": null,
      "addr": "Быково",
      "lat": 49.7655,
      "lon": 45.3884
    },
    {
      "id": "981",
      "name": "Быстрогорский",
      "region_id": "26",
      "hint": null,
      "addr": "Быстрогорский",
      "lat": 48.2044,
      "lon": 41.1399
    },
    {
      "id": "1325",
      "name": "Вавож",
      "region_id": "38",
      "hint": null,
      "addr": "Вавож",
      "lat": 56.7742,
      "lon": 51.9265
    },
    {
      "id": "2076",
      "name": "Вагай",
      "region_id": "14",
      "hint": null,
      "addr": "Вагай",
      "lat": 57.9321,
      "lon": 69.0217
    },
    {
      "id": "2031",
      "name": "Вад",
      "region_id": "6",
      "hint": null,
      "addr": "Вад",
      "lat": 54.0243,
      "lon": 42.678
    },
    {
      "id": "1995",
      "name": "Вадинск",
      "region_id": "24",
      "hint": null,
      "addr": "Вадинск",
      "lat": 53.69,
      "lon": 43.0545
    },
    {
      "id": "921",
      "name": "Валдай",
      "region_id": "19",
      "hint": null,
      "addr": "Валдай",
      "lat": 57.9802,
      "lon": 33.2467
    },
    {
      "id": "119",
      "name": "Валуйки",
      "region_id": "35",
      "hint": null,
      "addr": "Валуйки",
      "lat": 50.2112,
      "lon": 38.0999
    },
    {
      "id": "1308",
      "name": "Варгаши",
      "region_id": "67",
      "hint": null,
      "addr": "Варгаши",
      "lat": 55.3741,
      "lon": 65.809
    },
    {
      "id": "1115",
      "name": "Вардане",
      "region_id": "21",
      "hint": null,
      "addr": "Вардане",
      "lat": 43.7394,
      "lon": 39.5463
    },
    {
      "id": "651",
      "name": "Варениковская",
      "region_id": "21",
      "hint": null,
      "addr": "Варениковская",
      "lat": 45.1199,
      "lon": 37.6385
    },
    {
      "id": "1302",
      "name": "Варна",
      "region_id": "48",
      "hint": null,
      "addr": "Варна",
      "lat": 53.3823,
      "lon": 60.9754
    },
    {
      "id": "1524",
      "name": "Васильево",
      "region_id": "22",
      "hint": null,
      "addr": "Васильево",
      "lat": 55.8365,
      "lon": 48.7056
    },
    {
      "id": "1651",
      "name": "Васюринская",
      "region_id": "21",
      "hint": null,
      "addr": "Васюринская",
      "lat": 45.1181,
      "lon": 39.4216
    },
    {
      "id": "2328",
      "name": "Вахруши",
      "region_id": "55",
      "hint": null,
      "addr": "Вахруши",
      "lat": 58.6847,
      "lon": 50.0264
    },
    {
      "id": "1300",
      "name": "Вахтан",
      "region_id": "6",
      "hint": null,
      "addr": "Вахтан",
      "lat": 57.9596,
      "lon": 46.7
    },
    {
      "id": "287",
      "name": "Введенское",
      "region_id": "67",
      "hint": null,
      "addr": "Введенское",
      "lat": 55.4715,
      "lon": 65.0875
    },
    {
      "id": "401",
      "name": "Вейделевка",
      "region_id": "35",
      "hint": null,
      "addr": "Вейделевка",
      "lat": 50.1471,
      "lon": 38.4445
    },
    {
      "id": "1148",
      "name": "Велиж",
      "region_id": "47",
      "hint": null,
      "addr": "Велиж",
      "lat": 55.604,
      "lon": 31.1971
    },
    {
      "id": "348",
      "name": "Великие Луки",
      "region_id": "27",
      "hint": null,
      "addr": "Великие Луки",
      "lat": 56.3427,
      "lon": 30.5234
    },
    {
      "id": "36",
      "name": "Великий Новгород",
      "region_id": "19",
      "hint": null,
      "addr": "Великий Новгород",
      "lat": 58.5215,
      "lon": 31.2755
    },
    {
      "id": "1469",
      "name": "Великий Устюг",
      "region_id": "25",
      "hint": null,
      "addr": "Великий Устюг",
      "lat": 60.7604,
      "lon": 46.3055
    },
    {
      "id": "904",
      "name": "Вельск",
      "region_id": "66",
      "hint": null,
      "addr": "Вельск",
      "lat": 61.0659,
      "lon": 42.1033
    },
    {
      "id": "1954",
      "name": "Вельяминово",
      "region_id": "2",
      "hint": null,
      "addr": "Вельяминово",
      "lat": 55.1893,
      "lon": 37.8679
    },
    {
      "id": "1764",
      "name": "Венгерово",
      "region_id": "12",
      "hint": null,
      "addr": "Венгерово",
      "lat": 55.6842,
      "lon": 76.7478
    },
    {
      "id": "1608",
      "name": "Венев",
      "region_id": "3",
      "hint": null,
      "addr": "Венев",
      "lat": 54.3543,
      "lon": 38.2643
    },
    {
      "id": "2044",
      "name": "Вербилки",
      "region_id": "2",
      "hint": null,
      "addr": "Вербилки",
      "lat": 56.5313,
      "lon": 37.5983
    },
    {
      "id": "1248",
      "name": "Верещагино",
      "region_id": "40",
      "hint": null,
      "addr": "Верещагино",
      "lat": 58.0798,
      "lon": 54.6581
    },
    {
      "id": "1584",
      "name": "Верея",
      "region_id": "2",
      "hint": null,
      "addr": "Верея",
      "lat": 55.3434,
      "lon": 36.1878
    },
    {
      "id": "1405",
      "name": "Верх-Нейвинский",
      "region_id": "39",
      "hint": null,
      "addr": "Верх-Нейвинский",
      "lat": 57.2656,
      "lon": 60.1316
    },
    {
      "id": "1947",
      "name": "Верх-Тула",
      "region_id": "12",
      "hint": null,
      "addr": "Верх-Тула",
      "lat": 54.8806,
      "lon": 82.7724
    },
    {
      "id": "301",
      "name": "Верхнебаканский",
      "region_id": "21",
      "hint": null,
      "addr": "Верхнебаканский",
      "lat": 44.8439,
      "lon": 37.667
    },
    {
      "id": "1667",
      "name": "Верхнеднепровский",
      "region_id": "47",
      "hint": null,
      "addr": "Верхнеднепровский",
      "lat": 54.9814,
      "lon": 33.345
    },
    {
      "id": "2270",
      "name": "Верхнесоленый",
      "region_id": "26",
      "hint": null,
      "addr": "Верхнесоленый",
      "lat": 47.2377,
      "lon": 40.8194
    },
    {
      "id": "1732",
      "name": "Верхнеуральск",
      "region_id": "48",
      "hint": null,
      "addr": "Верхнеуральск",
      "lat": 53.8761,
      "lon": 59.217
    },
    {
      "id": "150",
      "name": "Верхнеяркеево",
      "region_id": "33",
      "hint": null,
      "addr": "Верхнеяркеево",
      "lat": 55.4514,
      "lon": 54.309
    },
    {
      "id": "2058",
      "name": "Верхние Киги",
      "region_id": "33",
      "hint": null,
      "addr": "Верхние Киги",
      "lat": 55.4076,
      "lon": 58.6003
    },
    {
      "id": "1991",
      "name": "Верхние Осельки",
      "region_id": "56",
      "hint": null,
      "addr": "Верхние Осельки",
      "lat": 60.2476,
      "lon": 30.4498
    },
    {
      "id": "1429",
      "name": "Верхние Серги",
      "region_id": "39",
      "hint": null,
      "addr": "Верхние Серги",
      "lat": 56.6494,
      "lon": 59.5602
    },
    {
      "id": "1976",
      "name": "Верхние Татышлы",
      "region_id": "33",
      "hint": null,
      "addr": "Верхние Татышлы",
      "lat": 56.29,
      "lon": 55.8568
    },
    {
      "id": "1942",
      "name": "Верхний Карачан",
      "region_id": "4",
      "hint": null,
      "addr": "Верхний Карачан",
      "lat": 51.4084,
      "lon": 41.7692
    },
    {
      "id": "1511",
      "name": "Верхний Мамон",
      "region_id": "4",
      "hint": null,
      "addr": "Верхний Мамон",
      "lat": 50.1709,
      "lon": 40.4011
    },
    {
      "id": "1284",
      "name": "Верхний Тагил",
      "region_id": "39",
      "hint": null,
      "addr": "Верхний Тагил",
      "lat": 57.3763,
      "lon": 59.9517
    },
    {
      "id": "1848",
      "name": "Верхний Услон",
      "region_id": "22",
      "hint": null,
      "addr": "Верхний Услон",
      "lat": 55.767,
      "lon": 48.9786
    },
    {
      "id": "736",
      "name": "Верхний Уфалей",
      "region_id": "48",
      "hint": null,
      "addr": "Верхний Уфалей",
      "lat": 56.0487,
      "lon": 60.2319
    },
    {
      "id": "233",
      "name": "Верхняя Пышма",
      "region_id": "39",
      "hint": null,
      "addr": "Верхняя Пышма",
      "lat": 56.9758,
      "lon": 60.565
    },
    {
      "id": "194",
      "name": "Верхняя Салда",
      "region_id": "39",
      "hint": null,
      "addr": "Верхняя Салда",
      "lat": 58.0466,
      "lon": 60.556
    },
    {
      "id": "1076",
      "name": "Верхняя Синячиха",
      "region_id": "39",
      "hint": null,
      "addr": "Верхняя Синячиха",
      "lat": 57.9861,
      "lon": 61.6721
    },
    {
      "id": "2209",
      "name": "Верхняя Тура",
      "region_id": "39",
      "hint": null,
      "addr": "Верхняя Тура",
      "lat": 58.3598,
      "lon": 59.8202
    },
    {
      "id": "1597",
      "name": "Верхняя Хава",
      "region_id": "4",
      "hint": null,
      "addr": "Верхняя Хава",
      "lat": 51.8438,
      "lon": 39.9363
    },
    {
      "id": "1509",
      "name": "Верховье",
      "region_id": "49",
      "hint": null,
      "addr": "Верховье",
      "lat": 52.8091,
      "lon": 37.2391
    },
    {
      "id": "843",
      "name": "Верхотурье",
      "region_id": "39",
      "hint": null,
      "addr": "Верхотурье",
      "lat": 58.8622,
      "lon": 60.8102
    },
    {
      "id": "883",
      "name": "Веселое",
      "region_id": "21",
      "hint": null,
      "addr": "Веселое",
      "lat": 50.615,
      "lon": 38.1614
    },
    {
      "id": "1572",
      "name": "Веселый",
      "region_id": "26",
      "hint": null,
      "addr": "Веселый",
      "lat": 57.1761,
      "lon": 66.5962
    },
    {
      "id": "1670",
      "name": "Весьегонск",
      "region_id": "9",
      "hint": null,
      "addr": "Весьегонск",
      "lat": 58.6584,
      "lon": 37.2591
    },
    {
      "id": "1013",
      "name": "Ветлуга",
      "region_id": "6",
      "hint": null,
      "addr": "Ветлуга",
      "lat": 57.8559,
      "lon": 45.7763
    },
    {
      "id": "874",
      "name": "Ветлужский",
      "region_id": "61",
      "hint": null,
      "addr": "Ветлужский",
      "lat": 57.821,
      "lon": 45.5491
    },
    {
      "id": "1503",
      "name": "Ветлужский",
      "region_id": "6",
      "hint": null,
      "addr": "Ветлужский",
      "lat": 57.821,
      "lon": 45.5491
    },
    {
      "id": "135",
      "name": "Вешенская",
      "region_id": "26",
      "hint": null,
      "addr": "Вешенская",
      "lat": 49.6317,
      "lon": 41.7284
    },
    {
      "id": "778",
      "name": "Вешкайма",
      "region_id": "34",
      "hint": null,
      "addr": "Вешкайма",
      "lat": 54.0489,
      "lon": 47.1233
    },
    {
      "id": "789",
      "name": "Видное",
      "region_id": "2",
      "hint": null,
      "addr": "Видное",
      "lat": 55.5518,
      "lon": 37.7063
    },
    {
      "id": "1656",
      "name": "Викулово",
      "region_id": "14",
      "hint": null,
      "addr": "Викулово",
      "lat": 56.8156,
      "lon": 70.6049
    },
    {
      "id": "1816",
      "name": "Виллозское",
      "region_id": "56",
      "hint": null,
      "addr": "Виллозское",
      "lat": 59.7355,
      "lon": 30.199
    },
    {
      "id": "1755",
      "name": "Винзили",
      "region_id": "14",
      "hint": null,
      "addr": "Винзили",
      "lat": 56.9508,
      "lon": 65.7654
    },
    {
      "id": "2239",
      "name": "Винницы",
      "region_id": "56",
      "hint": null,
      "addr": "Винницы",
      "lat": 49.2331,
      "lon": 28.4682
    },
    {
      "id": "723",
      "name": "Винсады",
      "region_id": "46",
      "hint": null,
      "addr": "Винсады",
      "lat": 44.087,
      "lon": 42.9512
    },
    {
      "id": "1297",
      "name": "Вистино",
      "region_id": "56",
      "hint": null,
      "addr": "Вистино",
      "lat": 59.7828,
      "lon": 28.4825
    },
    {
      "id": "1321",
      "name": "Витязево",
      "region_id": "21",
      "hint": null,
      "addr": "Витязево",
      "lat": 45.0024,
      "lon": 37.2838
    },
    {
      "id": "179",
      "name": "Вичуга",
      "region_id": "45",
      "hint": null,
      "addr": "Вичуга",
      "lat": 57.2171,
      "lon": 41.9181
    },
    {
      "id": "410",
      "name": "Владикавказ",
      "region_id": "62",
      "hint": null,
      "addr": "Владикавказ",
      "lat": 43.0206,
      "lon": 44.6819
    },
    {
      "id": "11",
      "name": "Владимир",
      "region_id": "7",
      "hint": null,
      "addr": "Владимир",
      "lat": 56.129,
      "lon": 40.407
    },
    {
      "id": "970",
      "name": "Владимирская",
      "region_id": "21",
      "hint": null,
      "addr": "Владимирская",
      "lat": 50.9554,
      "lon": 31.582
    },
    {
      "id": "848",
      "name": "ВНИИССОК",
      "region_id": "2",
      "hint": null,
      "addr": "ВНИИССОК",
      "lat": 55.6569,
      "lon": 37.2118
    },
    {
      "id": "1127",
      "name": "Водный",
      "region_id": "29",
      "hint": null,
      "addr": "Водный",
      "lat": 63.5043,
      "lon": 53.4085
    },
    {
      "id": "1151",
      "name": "Вожега",
      "region_id": "25",
      "hint": null,
      "addr": "Вожега",
      "lat": 60.4719,
      "lon": 40.2162
    },
    {
      "id": "626",
      "name": "Вознесенская",
      "region_id": "21",
      "hint": null,
      "addr": "Вознесенская",
      "lat": 48.5184,
      "lon": 36.0945
    },
    {
      "id": "1752",
      "name": "Вознесенское",
      "region_id": "6",
      "hint": null,
      "addr": "Вознесенское",
      "lat": 61.7418,
      "lon": 34.4569
    },
    {
      "id": "984",
      "name": "Войвож",
      "region_id": "29",
      "hint": null,
      "addr": "Войвож",
      "lat": 64.9359,
      "lon": 56.6323
    },
    {
      "id": "1585",
      "name": "Войсковицы",
      "region_id": "56",
      "hint": null,
      "addr": "Войсковицы",
      "lat": 59.5299,
      "lon": 29.9554
    },
    {
      "id": "32",
      "name": "Волгоград",
      "region_id": "15",
      "hint": null,
      "addr": "Волгоград",
      "lat": 48.7071,
      "lon": 44.5169
    },
    {
      "id": "109",
      "name": "Волгодонск",
      "region_id": "26",
      "hint": null,
      "addr": "Волгодонск",
      "lat": 47.5165,
      "lon": 42.1984
    },
    {
      "id": "801",
      "name": "Волгореченск",
      "region_id": "61",
      "hint": null,
      "addr": "Волгореченск",
      "lat": 57.4395,
      "lon": 41.1575
    },
    {
      "id": "261",
      "name": "Волжск",
      "region_id": "42",
      "hint": null,
      "addr": "Волжск",
      "lat": 55.8623,
      "lon": 48.3716
    },
    {
      "id": "2320",
      "name": "Волжский",
      "region_id": "18",
      "hint": null,
      "addr": "Волжский",
      "lat": 48.7979,
      "lon": 44.7462
    },
    {
      "id": "46",
      "name": "Волжский",
      "region_id": "15",
      "hint": null,
      "addr": "Волжский",
      "lat": 48.7979,
      "lon": 44.7462
    },
    {
      "id": "1724",
      "name": "Волковка",
      "region_id": "21",
      "hint": null,
      "addr": "Волковка",
      "lat": 49.1241,
      "lon": 35.5817
    },
    {
      "id": "406",
      "name": "Волово",
      "region_id": "44",
      "hint": null,
      "addr": "Волово",
      "lat": 53.558,
      "lon": 37.9998
    },
    {
      "id": "52",
      "name": "Вологда",
      "region_id": "25",
      "hint": null,
      "addr": "Вологда",
      "lat": 59.2205,
      "lon": 39.8916
    },
    {
      "id": "1213",
      "name": "Володарск",
      "region_id": "6",
      "hint": null,
      "addr": "Володарск",
      "lat": 56.2169,
      "lon": 43.1597
    },
    {
      "id": "1446",
      "name": "Володарский",
      "region_id": "13",
      "hint": null,
      "addr": "Володарский",
      "lat": 56.3283,
      "lon": 42.9851
    },
    {
      "id": "1096",
      "name": "Володарского",
      "region_id": "2",
      "hint": null,
      "addr": "Володарского",
      "lat": 47.2572,
      "lon": 35.7039
    },
    {
      "id": "334",
      "name": "Волоколамск",
      "region_id": "2",
      "hint": null,
      "addr": "Волоколамск",
      "lat": 56.0363,
      "lon": 35.9574
    },
    {
      "id": "274",
      "name": "Волоконовка",
      "region_id": "35",
      "hint": null,
      "addr": "Волоконовка",
      "lat": 50.4841,
      "lon": 37.8518
    },
    {
      "id": "571",
      "name": "Волосово",
      "region_id": "56",
      "hint": null,
      "addr": "Волосово",
      "lat": 59.4473,
      "lon": 29.4848
    },
    {
      "id": "249",
      "name": "Волхов",
      "region_id": "56",
      "hint": null,
      "addr": "Волхов",
      "lat": 59.9005,
      "lon": 32.3521
    },
    {
      "id": "1710",
      "name": "Волчанск",
      "region_id": "39",
      "hint": null,
      "addr": "Волчанск",
      "lat": 59.9351,
      "lon": 60.0798
    },
    {
      "id": "1165",
      "name": "Вольгинский",
      "region_id": "7",
      "hint": null,
      "addr": "Вольгинский",
      "lat": 55.9497,
      "lon": 39.2401
    },
    {
      "id": "322",
      "name": "Вольск",
      "region_id": "23",
      "hint": null,
      "addr": "Вольск",
      "lat": 52.046,
      "lon": 47.3873
    },
    {
      "id": "1731",
      "name": "Воробьевка",
      "region_id": "4",
      "hint": null,
      "addr": "Воробьевка",
      "lat": 46.204,
      "lon": 43.7663
    },
    {
      "id": "7",
      "name": "Воронеж",
      "region_id": "4",
      "hint": null,
      "addr": "Воронеж",
      "lat": 51.6615,
      "lon": 39.2003
    },
    {
      "id": "1251",
      "name": "Воронежская",
      "region_id": "21",
      "hint": null,
      "addr": "Воронежская",
      "lat": 48.5236,
      "lon": 135.071
    },
    {
      "id": "1307",
      "name": "Воронцовка",
      "region_id": "4",
      "hint": null,
      "addr": "Воронцовка",
      "lat": 59.6576,
      "lon": 60.2372
    },
    {
      "id": "528",
      "name": "Воротынец",
      "region_id": "6",
      "hint": null,
      "addr": "Воротынец",
      "lat": 56.0611,
      "lon": 45.8637
    },
    {
      "id": "1759",
      "name": "Воротынск",
      "region_id": "53",
      "hint": null,
      "addr": "Воротынск",
      "lat": 54.4716,
      "lon": 36.0466
    },
    {
      "id": "273",
      "name": "Воскресенск",
      "region_id": "2",
      "hint": null,
      "addr": "Воскресенск",
      "lat": 55.3198,
      "lon": 38.6724
    },
    {
      "id": "925",
      "name": "Воскресенское",
      "region_id": "23",
      "hint": null,
      "addr": "Воскресенское",
      "lat": 51.8262,
      "lon": 46.9364
    },
    {
      "id": "1625",
      "name": "Восточный",
      "region_id": "55",
      "hint": null,
      "addr": "Восточный",
      "lat": 46.7698,
      "lon": 36.7984
    },
    {
      "id": "2153",
      "name": "Востряково",
      "region_id": "2",
      "hint": null,
      "addr": "Востряково",
      "lat": 55.3956,
      "lon": 37.8121
    },
    {
      "id": "799",
      "name": "Воткинск",
      "region_id": "38",
      "hint": null,
      "addr": "Воткинск",
      "lat": 57.0518,
      "lon": 53.9874
    },
    {
      "id": "1747",
      "name": "Вохма",
      "region_id": "61",
      "hint": null,
      "addr": "Вохма",
      "lat": 59.1927,
      "lon": 46.6813
    },
    {
      "id": "1454",
      "name": "Вохринка",
      "region_id": "2",
      "hint": null,
      "addr": "Вохринка",
      "lat": 55.4068,
      "lon": 38.2997
    },
    {
      "id": "2250",
      "name": "Вохтога",
      "region_id": "25",
      "hint": null,
      "addr": "Вохтога",
      "lat": 58.8139,
      "lon": 41.0503
    },
    {
      "id": "1020",
      "name": "Всеволожск",
      "region_id": "56",
      "hint": null,
      "addr": "Всеволожск",
      "lat": 60.019,
      "lon": 30.6456
    },
    {
      "id": "1746",
      "name": "Вурнары",
      "region_id": "28",
      "hint": null,
      "addr": "Вурнары",
      "lat": 55.4903,
      "lon": 46.9582
    },
    {
      "id": "481",
      "name": "Входной",
      "region_id": "17",
      "hint": null,
      "addr": "Входной",
      "lat": 54.951,
      "lon": 73.1755
    },
    {
      "id": "450",
      "name": "Выборг",
      "region_id": "56",
      "hint": null,
      "addr": "Выборг",
      "lat": 60.7102,
      "lon": 28.7494
    },
    {
      "id": "859",
      "name": "Выгоничи",
      "region_id": "37",
      "hint": null,
      "addr": "Выгоничи",
      "lat": 53.1043,
      "lon": 34.0629
    },
    {
      "id": "1741",
      "name": "Выездное",
      "region_id": "6",
      "hint": null,
      "addr": "Выездное",
      "lat": 55.9799,
      "lon": 44.2991
    },
    {
      "id": "544",
      "name": "Выкса",
      "region_id": "6",
      "hint": null,
      "addr": "Выкса",
      "lat": 55.3207,
      "lon": 42.168
    },
    {
      "id": "1793",
      "name": "Выльгорт",
      "region_id": "29",
      "hint": null,
      "addr": "Выльгорт",
      "lat": 61.6221,
      "lon": 50.7528
    },
    {
      "id": "1708",
      "name": "Вырица",
      "region_id": "56",
      "hint": null,
      "addr": "Вырица",
      "lat": 59.4155,
      "lon": 30.3331
    },
    {
      "id": "1391",
      "name": "Выселки",
      "region_id": "18",
      "hint": null,
      "addr": "Выселки",
      "lat": 45.8696,
      "lon": 40.1157
    },
    {
      "id": "253",
      "name": "Выселки",
      "region_id": "21",
      "hint": null,
      "addr": "Выселки",
      "lat": 45.8696,
      "lon": 40.1157
    },
    {
      "id": "1323",
      "name": "Высокаяора",
      "region_id": "22",
      "hint": null,
      "addr": "Высокаяора",
      "lat": 55.9121,
      "lon": 49.3128
    },
    {
      "id": "1375",
      "name": "Высокий",
      "region_id": "32",
      "hint": null,
      "addr": "Высокий",
      "lat": 49.8817,
      "lon": 36.1138
    },
    {
      "id": "2149",
      "name": "Высоковск",
      "region_id": "2",
      "hint": null,
      "addr": "Высоковск",
      "lat": 56.3202,
      "lon": 36.552
    },
    {
      "id": "587",
      "name": "Вытегра",
      "region_id": "25",
      "hint": null,
      "addr": "Вытегра",
      "lat": 61.0064,
      "lon": 36.4495
    },
    {
      "id": "908",
      "name": "Вычегодский",
      "region_id": "66",
      "hint": null,
      "addr": "Вычегодский",
      "lat": 61.2479,
      "lon": 46.8825
    },
    {
      "id": "1721",
      "name": "Вышестеблиевская",
      "region_id": "21",
      "hint": null,
      "addr": "Вышестеблиевская",
      "lat": 45.1949,
      "lon": 37.0005
    },
    {
      "id": "343",
      "name": "Вышний Волочек",
      "region_id": "9",
      "hint": null,
      "addr": "Вышний Волочек",
      "lat": 57.5891,
      "lon": 34.5603
    },
    {
      "id": "580",
      "name": "Вязники",
      "region_id": "7",
      "hint": null,
      "addr": "Вязники",
      "lat": 56.247,
      "lon": 42.1589
    },
    {
      "id": "455",
      "name": "Вязьма",
      "region_id": "47",
      "hint": null,
      "addr": "Вязьма",
      "lat": 55.2059,
      "lon": 34.298
    },
    {
      "id": "1978",
      "name": "Вязьма-Брянская",
      "region_id": "47",
      "hint": null,
      "addr": "Вязьма-Брянская",
      "lat": 55.1691,
      "lon": 34.3719
    },
    {
      "id": "1805",
      "name": "Вяткино",
      "region_id": "7",
      "hint": null,
      "addr": "Вяткино",
      "lat": 52.5204,
      "lon": 83.6233
    },
    {
      "id": "1551",
      "name": "Вятские Поляны",
      "region_id": "55",
      "hint": null,
      "addr": "Вятские Поляны",
      "lat": 56.2229,
      "lon": 51.0749
    },
    {
      "id": "740",
      "name": "Гаврилов Посад",
      "region_id": "45",
      "hint": null,
      "addr": "Гаврилов Посад",
      "lat": 56.5583,
      "lon": 40.12
    },
    {
      "id": "183",
      "name": "Гаврилов-Ям",
      "region_id": "10",
      "hint": null,
      "addr": "Гаврилов-Ям",
      "lat": 57.3033,
      "lon": 39.8491
    },
    {
      "id": "1616",
      "name": "Гавриловка 2-я",
      "region_id": "64",
      "hint": null,
      "addr": "Гавриловка 2-я",
      "lat": 52.878,
      "lon": 42.7615
    },
    {
      "id": "671",
      "name": "Гагарин",
      "region_id": "47",
      "hint": null,
      "addr": "Гагарин",
      "lat": 55.5533,
      "lon": 34.9968
    },
    {
      "id": "1034",
      "name": "Гаджиево",
      "region_id": "50",
      "hint": null,
      "addr": "Гаджиево",
      "lat": 69.249,
      "lon": 33.3153
    },
    {
      "id": "1434",
      "name": "Газопроводск",
      "region_id": "2",
      "hint": null,
      "addr": "Газопроводск",
      "lat": 54.838,
      "lon": 39.2326
    },
    {
      "id": "139",
      "name": "Гай",
      "region_id": "31",
      "hint": null,
      "addr": "Гай",
      "lat": 51.465,
      "lon": 58.4437
    },
    {
      "id": "985",
      "name": "Гайдук",
      "region_id": "21",
      "hint": null,
      "addr": "Гайдук",
      "lat": 44.7837,
      "lon": 37.6991
    },
    {
      "id": "2061",
      "name": "Галич",
      "region_id": "61",
      "hint": null,
      "addr": "Галич",
      "lat": 58.3812,
      "lon": 42.3475
    },
    {
      "id": "1242",
      "name": "Гальчино",
      "region_id": "2",
      "hint": null,
      "addr": "Гальчино",
      "lat": 55.2734,
      "lon": 37.9049
    },
    {
      "id": "1478",
      "name": "Гамово",
      "region_id": "40",
      "hint": null,
      "addr": "Гамово",
      "lat": 57.8679,
      "lon": 56.1033
    },
    {
      "id": "589",
      "name": "Гатчина",
      "region_id": "56",
      "hint": null,
      "addr": "Гатчина",
      "lat": 59.5652,
      "lon": 30.1282
    },
    {
      "id": "1980",
      "name": "Гдов",
      "region_id": "27",
      "hint": null,
      "addr": "Гдов",
      "lat": 58.7432,
      "lon": 27.8264
    },
    {
      "id": "941",
      "name": "Геленджикк",
      "region_id": "21",
      "hint": null,
      "addr": "Геленджикк",
      "lat": 44.563,
      "lon": 38.0791
    },
    {
      "id": "164",
      "name": "Георгиевский",
      "region_id": "46",
      "hint": null,
      "addr": "Георгиевский",
      "lat": 44.2738,
      "lon": 43.4536
    },
    {
      "id": "1640",
      "name": "Гжельского Кирпичного Завода",
      "region_id": "2",
      "hint": null,
      "addr": "Гжельского Кирпичного Завода",
      "lat": 55.6133,
      "lon": 38.436
    },
    {
      "id": "1003",
      "name": "Гиагинская",
      "region_id": "58",
      "hint": null,
      "addr": "Гиагинская",
      "lat": 44.8762,
      "lon": 40.0595
    },
    {
      "id": "863",
      "name": "Гигант",
      "region_id": "26",
      "hint": null,
      "addr": "Гигант",
      "lat": 46.5062,
      "lon": 41.3385
    },
    {
      "id": "1769",
      "name": "Гидроторф",
      "region_id": "6",
      "hint": null,
      "addr": "Гидроторф",
      "lat": 56.4723,
      "lon": 43.5398
    },
    {
      "id": "1570",
      "name": "Гизель",
      "region_id": "62",
      "hint": null,
      "addr": "Гизель",
      "lat": 43.0422,
      "lon": 44.5699
    },
    {
      "id": "292",
      "name": "Глазов",
      "region_id": "38",
      "hint": null,
      "addr": "Глазов",
      "lat": 58.1408,
      "lon": 52.6742
    },
    {
      "id": "2049",
      "name": "Глубокий",
      "region_id": "26",
      "hint": null,
      "addr": "Глубокий",
      "lat": 44.947,
      "lon": 41.02
    },
    {
      "id": "1806",
      "name": "Глубокий",
      "region_id": "21",
      "hint": null,
      "addr": "Глубокий",
      "lat": 44.947,
      "lon": 41.02
    },
    {
      "id": "1598",
      "name": "Глушково",
      "region_id": "5",
      "hint": null,
      "addr": "Глушково",
      "lat": 51.3393,
      "lon": 34.635
    },
    {
      "id": "318",
      "name": "Глядянское",
      "region_id": "67",
      "hint": null,
      "addr": "Глядянское",
      "lat": 54.9086,
      "lon": 65.0903
    },
    {
      "id": "1883",
      "name": "Головинка",
      "region_id": "21",
      "hint": null,
      "addr": "Головинка",
      "lat": 47.414,
      "lon": 39.2168
    },
    {
      "id": "1487",
      "name": "Голубицкая",
      "region_id": "21",
      "hint": null,
      "addr": "Голубицкая",
      "lat": 45.3233,
      "lon": 37.275
    },
    {
      "id": "1189",
      "name": "Голышманово",
      "region_id": "14",
      "hint": null,
      "addr": "Голышманово",
      "lat": 56.396,
      "lon": 68.3752
    },
    {
      "id": "759",
      "name": "Горелово",
      "region_id": "56",
      "hint": null,
      "addr": "Горелово",
      "lat": 56.3841,
      "lon": 44.0685
    },
    {
      "id": "308",
      "name": "Горелое",
      "region_id": "64",
      "hint": null,
      "addr": "Горелое",
      "lat": 52.9207,
      "lon": 41.4979
    },
    {
      "id": "1266",
      "name": "Горнозаводск",
      "region_id": "40",
      "hint": null,
      "addr": "Горнозаводск",
      "lat": 58.3747,
      "lon": 58.3309
    },
    {
      "id": "1549",
      "name": "Горноправдинск",
      "region_id": "32",
      "hint": null,
      "addr": "Горноправдинск",
      "lat": 60.0596,
      "lon": 69.9249
    },
    {
      "id": "2082",
      "name": "Горноуральский",
      "region_id": "39",
      "hint": null,
      "addr": "Горноуральский",
      "lat": 58.0686,
      "lon": 59.9064
    },
    {
      "id": "1529",
      "name": "Горный",
      "region_id": "23",
      "hint": null,
      "addr": "Горный",
      "lat": 62.2545,
      "lon": 125.64
    },
    {
      "id": "2056",
      "name": "Горняцкий",
      "region_id": "26",
      "hint": null,
      "addr": "Горняцкий",
      "lat": 48.0096,
      "lon": 37.9893
    },
    {
      "id": "622",
      "name": "Городец",
      "region_id": "6",
      "hint": null,
      "addr": "Городец",
      "lat": 56.6448,
      "lon": 43.4724
    },
    {
      "id": "214",
      "name": "Городище",
      "region_id": "24",
      "hint": null,
      "addr": "Городище",
      "lat": 53.2728,
      "lon": 45.7027
    },
    {
      "id": "483",
      "name": "Городище",
      "region_id": "15",
      "hint": null,
      "addr": "Городище",
      "lat": 53.2728,
      "lon": 45.7027
    },
    {
      "id": "1877",
      "name": "Городовиковск",
      "region_id": "57",
      "hint": null,
      "addr": "Городовиковск",
      "lat": 46.0875,
      "lon": 41.9355
    },
    {
      "id": "803",
      "name": "Гороховец",
      "region_id": "7",
      "hint": null,
      "addr": "Гороховец",
      "lat": 56.2022,
      "lon": 42.6926
    },
    {
      "id": "1842",
      "name": "Горшечное",
      "region_id": "5",
      "hint": null,
      "addr": "Горшечное",
      "lat": 51.5221,
      "lon": 38.0353
    },
    {
      "id": "1348",
      "name": "Горьковское",
      "region_id": "17",
      "hint": null,
      "addr": "Горьковское",
      "lat": 57.4623,
      "lon": 41.1741
    },
    {
      "id": "546",
      "name": "Горячеводский",
      "region_id": "46",
      "hint": null,
      "addr": "Горячеводский",
      "lat": 44.0237,
      "lon": 43.0973
    },
    {
      "id": "747",
      "name": "Горячий Ключ",
      "region_id": "21",
      "hint": null,
      "addr": "Горячий Ключ",
      "lat": 44.6344,
      "lon": 39.1356
    },
    {
      "id": "307",
      "name": "Гостагаевская",
      "region_id": "21",
      "hint": null,
      "addr": "Гостагаевская",
      "lat": 45.0225,
      "lon": 37.5041
    },
    {
      "id": "2081",
      "name": "Гостилицы",
      "region_id": "56",
      "hint": null,
      "addr": "Гостилицы",
      "lat": 59.746,
      "lon": 29.6229
    },
    {
      "id": "1018",
      "name": "Грабово",
      "region_id": "24",
      "hint": null,
      "addr": "Грабово",
      "lat": 53.3773,
      "lon": 45.0633
    },
    {
      "id": "1055",
      "name": "Грайворон",
      "region_id": "35",
      "hint": null,
      "addr": "Грайворон",
      "lat": 50.4862,
      "lon": 35.6664
    },
    {
      "id": "1527",
      "name": "Грахово",
      "region_id": "38",
      "hint": null,
      "addr": "Грахово",
      "lat": 56.0469,
      "lon": 51.9661
    },
    {
      "id": "2100",
      "name": "Грачевка",
      "region_id": "46",
      "hint": null,
      "addr": "Грачевка",
      "lat": 52.9207,
      "lon": 52.868
    },
    {
      "id": "1924",
      "name": "Грачевка",
      "region_id": "31",
      "hint": null,
      "addr": "Грачевка",
      "lat": 52.9207,
      "lon": 52.868
    },
    {
      "id": "1605",
      "name": "Гремячево",
      "region_id": "6",
      "hint": null,
      "addr": "Гремячево",
      "lat": 55.3922,
      "lon": 43.0217
    },
    {
      "id": "2019",
      "name": "Гремячинск",
      "region_id": "40",
      "hint": null,
      "addr": "Гремячинск",
      "lat": 58.5626,
      "lon": 57.852
    },
    {
      "id": "2141",
      "name": "Грибановский",
      "region_id": "4",
      "hint": null,
      "addr": "Грибановский",
      "lat": 51.4246,
      "lon": 41.4392
    },
    {
      "id": "1169",
      "name": "Гривенская",
      "region_id": "21",
      "hint": null,
      "addr": "Гривенская",
      "lat": 45.6446,
      "lon": 38.1594
    },
    {
      "id": "1684",
      "name": "Григорово",
      "region_id": "19",
      "hint": null,
      "addr": "Григорово",
      "lat": 55.7813,
      "lon": 44.6299
    },
    {
      "id": "1050",
      "name": "Григорополисская",
      "region_id": "46",
      "hint": null,
      "addr": "Григорополисская",
      "lat": 45.3019,
      "lon": 41.0554
    },
    {
      "id": "95",
      "name": "Грозный",
      "region_id": "54",
      "hint": null,
      "addr": "Грозный",
      "lat": 43.3178,
      "lon": 45.6949
    },
    {
      "id": "1086",
      "name": "Грушевская",
      "region_id": "26",
      "hint": null,
      "addr": "Грушевская",
      "lat": 53.882,
      "lon": 27.5147
    },
    {
      "id": "705",
      "name": "Грязи",
      "region_id": "44",
      "hint": null,
      "addr": "Грязи",
      "lat": 52.4837,
      "lon": 39.9579
    },
    {
      "id": "1590",
      "name": "Грязовец",
      "region_id": "25",
      "hint": null,
      "addr": "Грязовец",
      "lat": 58.8758,
      "lon": 40.2485
    },
    {
      "id": "446",
      "name": "Губаха",
      "region_id": "40",
      "hint": null,
      "addr": "Губаха",
      "lat": 58.8371,
      "lon": 57.5545
    },
    {
      "id": "2308",
      "name": "Губино (Белавинское с/п)",
      "region_id": "2",
      "hint": null,
      "addr": "Губино (Белавинское с/п)",
      "lat": 56.5857,
      "lon": 84.6286
    },
    {
      "id": "752",
      "name": "Губкин",
      "region_id": "35",
      "hint": null,
      "addr": "Губкин",
      "lat": 51.2836,
      "lon": 37.5347
    },
    {
      "id": "1865",
      "name": "Губкинский",
      "region_id": "65",
      "hint": null,
      "addr": "Губкинский",
      "lat": 64.4326,
      "lon": 76.5005
    },
    {
      "id": "289",
      "name": "Гуково",
      "region_id": "26",
      "hint": null,
      "addr": "Гуково",
      "lat": 48.0584,
      "lon": 39.9403
    },
    {
      "id": "578",
      "name": "Гулькевичи",
      "region_id": "21",
      "hint": null,
      "addr": "Гулькевичи",
      "lat": 45.3584,
      "lon": 40.6964
    },
    {
      "id": "2133",
      "name": "Гуляй-Борисовка",
      "region_id": "26",
      "hint": null,
      "addr": "Гуляй-Борисовка",
      "lat": 46.6271,
      "lon": 40.2117
    },
    {
      "id": "1982",
      "name": "Гумрак",
      "region_id": "15",
      "hint": null,
      "addr": "Гумрак",
      "lat": 48.7827,
      "lon": 44.3802
    },
    {
      "id": "390",
      "name": "Гурьевск",
      "region_id": "30",
      "hint": null,
      "addr": "Гурьевск",
      "lat": 54.2859,
      "lon": 85.9476
    },
    {
      "id": "608",
      "name": "Гусь-Железный",
      "region_id": "8",
      "hint": null,
      "addr": "Гусь-Железный",
      "lat": 55.0572,
      "lon": 41.1637
    },
    {
      "id": "106",
      "name": "Гусь-Хрустальный",
      "region_id": "7",
      "hint": null,
      "addr": "Гусь-Хрустальный",
      "lat": 55.6198,
      "lon": 40.6579
    },
    {
      "id": "694",
      "name": "Давлеканово",
      "region_id": "33",
      "hint": null,
      "addr": "Давлеканово",
      "lat": 54.2227,
      "lon": 55.0313
    },
    {
      "id": "1641",
      "name": "Давыдовка",
      "region_id": "4",
      "hint": null,
      "addr": "Давыдовка",
      "lat": 53.0654,
      "lon": 47.1612
    },
    {
      "id": "584",
      "name": "Давыдово",
      "region_id": "2",
      "hint": null,
      "addr": "Давыдово",
      "lat": 55.6076,
      "lon": 38.8588
    },
    {
      "id": "1285",
      "name": "Дагомыс",
      "region_id": "21",
      "hint": null,
      "addr": "Дагомыс",
      "lat": 43.6603,
      "lon": 39.6574
    },
    {
      "id": "693",
      "name": "Далматово",
      "region_id": "67",
      "hint": null,
      "addr": "Далматово",
      "lat": 56.2621,
      "lon": 62.9388
    },
    {
      "id": "2177",
      "name": "Дальнее Константиново",
      "region_id": "6",
      "hint": null,
      "addr": "Дальнее Константиново",
      "lat": 55.8089,
      "lon": 44.0894
    },
    {
      "id": "1402",
      "name": "Данилов",
      "region_id": "10",
      "hint": null,
      "addr": "Данилов",
      "lat": 58.1879,
      "lon": 40.1748
    },
    {
      "id": "1372",
      "name": "Даниловка",
      "region_id": "15",
      "hint": null,
      "addr": "Даниловка",
      "lat": 50.3608,
      "lon": 44.1184
    },
    {
      "id": "834",
      "name": "Данков",
      "region_id": "44",
      "hint": null,
      "addr": "Данков",
      "lat": 53.2445,
      "lon": 39.1418
    },
    {
      "id": "2062",
      "name": "Даровской",
      "region_id": "55",
      "hint": null,
      "addr": "Даровской",
      "lat": 59.0162,
      "lon": 47.8763
    },
    {
      "id": "1518",
      "name": "Двуреченск",
      "region_id": "39",
      "hint": null,
      "addr": "Двуреченск",
      "lat": 56.5959,
      "lon": 61.0944
    },
    {
      "id": "1448",
      "name": "Дебесы",
      "region_id": "38",
      "hint": null,
      "addr": "Дебесы",
      "lat": 57.6514,
      "lon": 53.8061
    },
    {
      "id": "1792",
      "name": "Девица",
      "region_id": "4",
      "hint": null,
      "addr": "Девица",
      "lat": 51.9906,
      "lon": 39.7969
    },
    {
      "id": "1346",
      "name": "Дегтярск",
      "region_id": "39",
      "hint": null,
      "addr": "Дегтярск",
      "lat": 56.6985,
      "lon": 60.0867
    },
    {
      "id": "993",
      "name": "Деденево",
      "region_id": "2",
      "hint": null,
      "addr": "Деденево",
      "lat": 56.243,
      "lon": 37.5167
    },
    {
      "id": "1617",
      "name": "Дедовичи",
      "region_id": "27",
      "hint": null,
      "addr": "Дедовичи",
      "lat": 57.5488,
      "lon": 29.9451
    },
    {
      "id": "361",
      "name": "Дедовск",
      "region_id": "2",
      "hint": null,
      "addr": "Дедовск",
      "lat": 55.8598,
      "lon": 37.1206
    },
    {
      "id": "234",
      "name": "Демидов",
      "region_id": "47",
      "hint": null,
      "addr": "Демидов",
      "lat": 55.2644,
      "lon": 31.515
    },
    {
      "id": "505",
      "name": "Демьянка",
      "region_id": "14",
      "hint": null,
      "addr": "Демьянка",
      "lat": 59.0768,
      "lon": 34.7157
    },
    {
      "id": "1996",
      "name": "Демянск",
      "region_id": "19",
      "hint": null,
      "addr": "Демянск",
      "lat": 57.6429,
      "lon": 32.4644
    },
    {
      "id": "1702",
      "name": "Дергачи",
      "region_id": "23",
      "hint": null,
      "addr": "Дергачи",
      "lat": 50.1117,
      "lon": 36.1206
    },
    {
      "id": "236",
      "name": "Десногорск",
      "region_id": "47",
      "hint": null,
      "addr": "Десногорск",
      "lat": 54.1464,
      "lon": 33.2833
    },
    {
      "id": "2272",
      "name": "Детчино",
      "region_id": "53",
      "hint": null,
      "addr": "Детчино",
      "lat": 54.8032,
      "lon": 36.304
    },
    {
      "id": "1431",
      "name": "Джалиль",
      "region_id": "22",
      "hint": null,
      "addr": "Джалиль",
      "lat": 55.0219,
      "lon": 52.739
    },
    {
      "id": "1809",
      "name": "Джубга",
      "region_id": "21",
      "hint": null,
      "addr": "Джубга",
      "lat": 44.3224,
      "lon": 38.7044
    },
    {
      "id": "2087",
      "name": "Дзержинец",
      "region_id": "2",
      "hint": null,
      "addr": "Дзержинец",
      "lat": 59.0725,
      "lon": 56.8615
    },
    {
      "id": "9",
      "name": "Дзержинск",
      "region_id": "6",
      "hint": null,
      "addr": "Дзержинск",
      "lat": 56.2384,
      "lon": 43.4616
    },
    {
      "id": "156",
      "name": "Дзержинский",
      "region_id": "2",
      "hint": null,
      "addr": "Дзержинский",
      "lat": 55.6241,
      "lon": 37.8441
    },
    {
      "id": "1185",
      "name": "Дивеево",
      "region_id": "6",
      "hint": null,
      "addr": "Дивеево",
      "lat": 55.0399,
      "lon": 43.2421
    },
    {
      "id": "1874",
      "name": "Дивное",
      "region_id": "46",
      "hint": null,
      "addr": "Дивное",
      "lat": 45.907,
      "lon": 43.3485
    },
    {
      "id": "940",
      "name": "Дивноморское",
      "region_id": "21",
      "hint": null,
      "addr": "Дивноморское",
      "lat": 44.4998,
      "lon": 38.1373
    },
    {
      "id": "2318",
      "name": "Дигора",
      "region_id": "62",
      "hint": null,
      "addr": "Дигора",
      "lat": 43.1567,
      "lon": 44.155
    },
    {
      "id": "77",
      "name": "Димитровград",
      "region_id": "34",
      "hint": null,
      "addr": "Димитровград",
      "lat": 54.2239,
      "lon": 49.6008
    },
    {
      "id": "894",
      "name": "Динская",
      "region_id": "21",
      "hint": null,
      "addr": "Динская",
      "lat": 45.2132,
      "lon": 39.2291
    },
    {
      "id": "1781",
      "name": "Дмитриев",
      "region_id": "5",
      "hint": null,
      "addr": "Дмитриев",
      "lat": 52.1269,
      "lon": 35.074
    },
    {
      "id": "910",
      "name": "Дмитриевка",
      "region_id": "64",
      "hint": null,
      "addr": "Дмитриевка",
      "lat": 42.8941,
      "lon": 74.9009
    },
    {
      "id": "24",
      "name": "Дмитров",
      "region_id": "2",
      "hint": null,
      "addr": "Дмитров",
      "lat": 56.3442,
      "lon": 37.52
    },
    {
      "id": "1280",
      "name": "Дмитровск",
      "region_id": "49",
      "hint": null,
      "addr": "Дмитровск",
      "lat": 52.5054,
      "lon": 35.1415
    },
    {
      "id": "238",
      "name": "Дно",
      "region_id": "27",
      "hint": null,
      "addr": "Дно",
      "lat": 57.8269,
      "lon": 29.963
    },
    {
      "id": "1862",
      "name": "Добринка",
      "region_id": "44",
      "hint": null,
      "addr": "Добринка",
      "lat": 52.1667,
      "lon": 40.4722
    },
    {
      "id": "1339",
      "name": "Доброе",
      "region_id": "44",
      "hint": null,
      "addr": "Доброе",
      "lat": 52.8646,
      "lon": 39.8096
    },
    {
      "id": "479",
      "name": "Добрянка",
      "region_id": "40",
      "hint": null,
      "addr": "Добрянка",
      "lat": 58.4697,
      "lon": 56.4131
    },
    {
      "id": "1187",
      "name": "Довольное",
      "region_id": "12",
      "hint": null,
      "addr": "Довольное",
      "lat": 54.4962,
      "lon": 79.6646
    },
    {
      "id": "243",
      "name": "Долгодеревенское",
      "region_id": "48",
      "hint": null,
      "addr": "Долгодеревенское",
      "lat": 55.3433,
      "lon": 61.341
    },
    {
      "id": "1499",
      "name": "Долгое",
      "region_id": "49",
      "hint": null,
      "addr": "Долгое",
      "lat": 52.0503,
      "lon": 37.5188
    },
    {
      "id": "474",
      "name": "Долгопрудный",
      "region_id": "2",
      "hint": null,
      "addr": "Долгопрудный",
      "lat": 55.9336,
      "lon": 37.5144
    },
    {
      "id": "2298",
      "name": "Долгоруково",
      "region_id": "44",
      "hint": null,
      "addr": "Долгоруково",
      "lat": 53.6166,
      "lon": 44.2403
    },
    {
      "id": "2091",
      "name": "Должанская",
      "region_id": "21",
      "hint": null,
      "addr": "Должанская",
      "lat": 56.3307,
      "lon": 43.9594
    },
    {
      "id": "2289",
      "name": "Домашка",
      "region_id": "18",
      "hint": null,
      "addr": "Домашка",
      "lat": 52.9841,
      "lon": 50.7714
    },
    {
      "id": "1543",
      "name": "Домбаровский",
      "region_id": "31",
      "hint": null,
      "addr": "Домбаровский",
      "lat": 50.7847,
      "lon": 59.3078
    },
    {
      "id": "898",
      "name": "Дондуковская",
      "region_id": "58",
      "hint": null,
      "addr": "Дондуковская",
      "lat": 44.8804,
      "lon": 40.3664
    },
    {
      "id": "712",
      "name": "Донецк",
      "region_id": "26",
      "hint": null,
      "addr": "Донецк",
      "lat": 48.0159,
      "lon": 37.8028
    },
    {
      "id": "2116",
      "name": "Донское",
      "region_id": "46",
      "hint": null,
      "addr": "Донское",
      "lat": 53.9899,
      "lon": 38.2965
    },
    {
      "id": "1521",
      "name": "Донское",
      "region_id": "31",
      "hint": null,
      "addr": "Донское",
      "lat": 53.9899,
      "lon": 38.2965
    },
    {
      "id": "994",
      "name": "Донской",
      "region_id": "3",
      "hint": null,
      "addr": "Донской",
      "lat": 53.9679,
      "lon": 38.3372
    },
    {
      "id": "538",
      "name": "Дорогобуж",
      "region_id": "47",
      "hint": null,
      "addr": "Дорогобуж",
      "lat": 54.9138,
      "lon": 33.3024
    },
    {
      "id": "2348",
      "name": "Дороничи",
      "region_id": "55",
      "hint": null,
      "addr": "Дороничи",
      "lat": 58.5607,
      "lon": 49.5054
    },
    {
      "id": "1783",
      "name": "Досчатое",
      "region_id": "6",
      "hint": null,
      "addr": "Досчатое",
      "lat": 55.4044,
      "lon": 42.1061
    },
    {
      "id": "1900",
      "name": "Дрезна",
      "region_id": "2",
      "hint": null,
      "addr": "Дрезна",
      "lat": 55.7443,
      "lon": 38.8499
    },
    {
      "id": "689",
      "name": "Дружнаяорка",
      "region_id": "56",
      "hint": null,
      "addr": "Дружнаяорка",
      "lat": 59.2817,
      "lon": 30.1223
    },
    {
      "id": "592",
      "name": "Дубенки",
      "region_id": "60",
      "hint": null,
      "addr": "Дубенки",
      "lat": 54.4348,
      "lon": 46.3043
    },
    {
      "id": "2135",
      "name": "Дубки",
      "region_id": "23",
      "hint": null,
      "addr": "Дубки",
      "lat": 51.6624,
      "lon": 46.0612
    },
    {
      "id": "772",
      "name": "Дубна",
      "region_id": "2",
      "hint": null,
      "addr": "Дубна",
      "lat": 56.7325,
      "lon": 37.1672
    },
    {
      "id": "888",
      "name": "Дубна",
      "region_id": "3",
      "hint": null,
      "addr": "Дубна",
      "lat": 56.7325,
      "lon": 37.1672
    },
    {
      "id": "2330",
      "name": "Дубовая Роща",
      "region_id": "2",
      "hint": null,
      "addr": "Дубовая Роща",
      "lat": 55.542,
      "lon": 38.3096
    },
    {
      "id": "1077",
      "name": "Дубовка",
      "region_id": "15",
      "hint": null,
      "addr": "Дубовка",
      "lat": 49.0555,
      "lon": 44.827
    },
    {
      "id": "1195",
      "name": "Дубовка",
      "region_id": "3",
      "hint": null,
      "addr": "Дубовка",
      "lat": 49.0555,
      "lon": 44.827
    },
    {
      "id": "247",
      "name": "Дубовое",
      "region_id": "35",
      "hint": null,
      "addr": "Дубовое",
      "lat": 50.5373,
      "lon": 36.5657
    },
    {
      "id": "1259",
      "name": "Дубовское",
      "region_id": "26",
      "hint": null,
      "addr": "Дубовское",
      "lat": 47.4122,
      "lon": 42.7709
    },
    {
      "id": "1278",
      "name": "Дубовый Умет",
      "region_id": "18",
      "hint": null,
      "addr": "Дубовый Умет",
      "lat": 52.976,
      "lon": 50.2884
    },
    {
      "id": "2098",
      "name": "Дубровка",
      "region_id": "56",
      "hint": null,
      "addr": "Дубровка",
      "lat": 51.9276,
      "lon": 85.839
    },
    {
      "id": "567",
      "name": "Дубровка",
      "region_id": "37",
      "hint": null,
      "addr": "Дубровка",
      "lat": 51.9276,
      "lon": 85.839
    },
    {
      "id": "463",
      "name": "Думиничи",
      "region_id": "53",
      "hint": null,
      "addr": "Думиничи",
      "lat": 53.9332,
      "lon": 35.1115
    },
    {
      "id": "1632",
      "name": "Духовницкое",
      "region_id": "23",
      "hint": null,
      "addr": "Духовницкое",
      "lat": 52.4765,
      "lon": 48.216
    },
    {
      "id": "616",
      "name": "Дюртюли",
      "region_id": "33",
      "hint": null,
      "addr": "Дюртюли",
      "lat": 55.4853,
      "lon": 54.8735
    },
    {
      "id": "657",
      "name": "Дятьково",
      "region_id": "37",
      "hint": null,
      "addr": "Дятьково",
      "lat": 53.5973,
      "lon": 34.3397
    },
    {
      "id": "914",
      "name": "Егорлыкская",
      "region_id": "26",
      "hint": null,
      "addr": "Егорлыкская",
      "lat": 46.5652,
      "lon": 40.6609
    },
    {
      "id": "97",
      "name": "Егорьевск",
      "region_id": "2",
      "hint": null,
      "addr": "Егорьевск",
      "lat": 55.3831,
      "lon": 39.0358
    },
    {
      "id": "268",
      "name": "Ейск",
      "region_id": "21",
      "hint": null,
      "addr": "Ейск",
      "lat": 46.7115,
      "lon": 38.2765
    },
    {
      "id": "195",
      "name": "Екатеринбург",
      "region_id": "39",
      "hint": null,
      "addr": "Екатеринбург",
      "lat": 56.8386,
      "lon": 60.6055
    },
    {
      "id": "1642",
      "name": "Екатериновка",
      "region_id": "23",
      "hint": null,
      "addr": "Екатериновка",
      "lat": 53.0841,
      "lon": 49.455
    },
    {
      "id": "1145",
      "name": "Елабуга",
      "region_id": "22",
      "hint": null,
      "addr": "Елабуга",
      "lat": 55.7567,
      "lon": 52.0545
    },
    {
      "id": "1320",
      "name": "Елань",
      "region_id": "15",
      "hint": null,
      "addr": "Елань",
      "lat": 49.8421,
      "lon": 42.1175
    },
    {
      "id": "1163",
      "name": "Елань-Колено",
      "region_id": "4",
      "hint": null,
      "addr": "Елань-Колено",
      "lat": 51.1542,
      "lon": 41.2296
    },
    {
      "id": "1578",
      "name": "Елань-Коленовский",
      "region_id": "4",
      "hint": null,
      "addr": "Елань-Коленовский",
      "lat": 51.172,
      "lon": 41.1516
    },
    {
      "id": "1410",
      "name": "Елатьма",
      "region_id": "8",
      "hint": null,
      "addr": "Елатьма",
      "lat": 54.9661,
      "lon": 41.7514
    },
    {
      "id": "368",
      "name": "Елец",
      "region_id": "44",
      "hint": null,
      "addr": "Елец",
      "lat": 52.6193,
      "lon": 38.4999
    },
    {
      "id": "1437",
      "name": "Елизаветино",
      "region_id": "56",
      "hint": null,
      "addr": "Елизаветино",
      "lat": 59.4915,
      "lon": 29.7923
    },
    {
      "id": "172",
      "name": "Елизаветинская",
      "region_id": "21",
      "hint": null,
      "addr": "Елизаветинская",
      "lat": 45.0484,
      "lon": 38.7999
    },
    {
      "id": "68",
      "name": "Елино",
      "region_id": "2",
      "hint": null,
      "addr": "Елино",
      "lat": 55.986,
      "lon": 37.2784
    },
    {
      "id": "220",
      "name": "Елово",
      "region_id": "40",
      "hint": null,
      "addr": "Елово",
      "lat": 57.051,
      "lon": 54.9193
    },
    {
      "id": "388",
      "name": "Елшанка",
      "region_id": "23",
      "hint": null,
      "addr": "Елшанка",
      "lat": 51.3207,
      "lon": 55.0099
    },
    {
      "id": "1846",
      "name": "Ельники",
      "region_id": "60",
      "hint": null,
      "addr": "Ельники",
      "lat": 54.6228,
      "lon": 43.8707
    },
    {
      "id": "681",
      "name": "Ельня",
      "region_id": "47",
      "hint": null,
      "addr": "Ельня",
      "lat": 54.5762,
      "lon": 33.1793
    },
    {
      "id": "1600",
      "name": "Еманжелинск",
      "region_id": "48",
      "hint": null,
      "addr": "Еманжелинск",
      "lat": 54.7521,
      "lon": 61.3172
    },